full_address;address;name;lat;lng;data;alvara;cdb_idx
RUA DESEMBARGADOR REIS ALVES, 90, ANDAR: 2,, BAIRRO DAS INDUSTRIAS I, Belo Horizonte, Minas Gerais, Brasil;RUA DESEMBARGADOR REIS ALVES, 90, BAIRRO DAS INDUSTRIAS I, Belo Horizonte, Minas Gerais, Brasil;APARECIDA MARIA DE SOUZA;-19.9589334;-44.0017603;01-07-1993;NÃO;-1
RUA LUIZ PONGELUPE, 290, C, CARDOSO, Belo Horizonte, Minas Gerais, Brasil;RUA LUIZ PONGELUPE, 290, CARDOSO, Belo Horizonte, Minas Gerais, Brasil;PIZZARIA E CHURRASCARIA VARANDA;;;15-10-1993;NÃO;-1
AVE RESSACA, 118, LOJA 04, PADRE EUSTAQUIO, Belo Horizonte, Minas Gerais, Brasil;AVE RESSACA, 118, PADRE EUSTAQUIO, Belo Horizonte, Minas Gerais, Brasil;RABBIT BURGER;;;02-05-1994;NÃO;-1
RUA DESEMBARGADOR RIBEIRO DA LUZ, 135, nan, BARREIRO, Belo Horizonte, Minas Gerais, Brasil;RUA DESEMBARGADOR RIBEIRO DA LUZ, 135, BARREIRO, Belo Horizonte, Minas Gerais, Brasil;TATU REI DO ANGU A  BAHIANA;-19.9732823;-44.0141195;24-11-1993;SIM;-1
AVE CRISTIANO MACHADO, 1950, LOJA 36, CIDADE NOVA, Belo Horizonte, Minas Gerais, Brasil;AVE CRISTIANO MACHADO, 1950, CIDADE NOVA, Belo Horizonte, Minas Gerais, Brasil;ESPACO DA FEIJOADA;;;01-10-1993;SIM;-1
RUA LUZIA SALOMAO, 50, nan, MANTIQUEIRA, Belo Horizonte, Minas Gerais, Brasil;RUA LUZIA SALOMAO, 50, MANTIQUEIRA, Belo Horizonte, Minas Gerais, Brasil;AECIO CARLOS MIGUEL LEMOS 99648725691;-19.8027128;-43.9798377;15-12-2020;NÃO;-1
RUA BRAULIO GOMES NOGUEIRA, 1200, nan, ITAIPU, Belo Horizonte, Minas Gerais, Brasil;RUA BRAULIO GOMES NOGUEIRA, 1200, ITAIPU, Belo Horizonte, Minas Gerais, Brasil;CHURRASCARIA BAHIAS BAR LTDA;-19.9945782;-44.0464278;16-09-2011;SIM;-1
RUA DOS OTONI, 222, LETRA: A,, SANTA EFIGENIA, Belo Horizonte, Minas Gerais, Brasil;RUA DOS OTONI, 222, SANTA EFIGENIA, Belo Horizonte, Minas Gerais, Brasil;RESTAURANTE NOVO SABOR;-19.9264845;-43.9245162;16-09-2011;SIM;-1
RUA DOS TUPINAMBAS, 1100, LOJA: 04,, CENTRO, Belo Horizonte, Minas Gerais, Brasil;RUA DOS TUPINAMBAS, 1100, CENTRO, Belo Horizonte, Minas Gerais, Brasil;BAR DO MELO LTDA;-19.9164141;-43.9443398;28-09-2011;SIM;-1
AVE SOLFERINA RICCI PACE, 1301, nan, CONJUNTO JATOBA, Belo Horizonte, Minas Gerais, Brasil;AVE SOLFERINA RICCI PACE, 1301, CONJUNTO JATOBA, Belo Horizonte, Minas Gerais, Brasil;DU DAY RESTAURANTE, LANCHONETE E DISTRIBUIDORA DE BEBIDAS LTDA;;;27-09-2011;SIM;-1
RUA FURQUIM WERNECK, 619, nan, TUPI A, Belo Horizonte, Minas Gerais, Brasil;RUA FURQUIM WERNECK, 619, TUPI A, Belo Horizonte, Minas Gerais, Brasil;RESTAURANTE E PIZZARIA VALORES DE MINAS;;;26-08-2011;NÃO;-1
RUA SALINAS, 1547, nan, SANTA TEREZA, Belo Horizonte, Minas Gerais, Brasil;RUA SALINAS, 1547, SANTA TEREZA, Belo Horizonte, Minas Gerais, Brasil;SHIRLEY FRAGUAS MESQUITA 85413178620;-19.9148029;-43.9230373;30-09-2011;NÃO;-1
RUA OLINTO MAGALHAES, 710, nan, PADRE EUSTAQUIO, Belo Horizonte, Minas Gerais, Brasil;RUA OLINTO MAGALHAES, 710, PADRE EUSTAQUIO, Belo Horizonte, Minas Gerais, Brasil;JOEL MARTINS 03590726660;-19.9135199;-43.9854158;21-09-2011;SIM;-1
ALA DAS FLORES, 8, nan, VILA SUMARE, Belo Horizonte, Minas Gerais, Brasil;ALA DAS FLORES, 8, VILA SUMARE, Belo Horizonte, Minas Gerais, Brasil;DIVINA DA CONSOLACAO SILVA 70054436672;;;12-09-2011;NÃO;-1
RUA JOSE FELIX MARTINS, 560, nan, MANTIQUEIRA, Belo Horizonte, Minas Gerais, Brasil;RUA JOSE FELIX MARTINS, 560, MANTIQUEIRA, Belo Horizonte, Minas Gerais, Brasil;FERNANDO CARLOS ROSA 39953084653;-19.7995836;-43.9839528;30-08-2011;NÃO;-1
RUA MANGARATIBA, 390, nan, SAO GERALDO, Belo Horizonte, Minas Gerais, Brasil;RUA MANGARATIBA, 390, SAO GERALDO, Belo Horizonte, Minas Gerais, Brasil;PIZZAIOLO SAO GERALDO II;-19.9016216;-43.901457;21-09-2011;NÃO;-1
AVE OIAPOQUE, 156, ANDAR 2 LOJA M 001, CENTRO, Belo Horizonte, Minas Gerais, Brasil;AVE OIAPOQUE, 156, CENTRO, Belo Horizonte, Minas Gerais, Brasil;RESTAURANTE BAO TAMEM LTDA;;;30-08-2011;SIM;-1
RUA SERGIPE, 1360, nan, SAVASSI, Belo Horizonte, Minas Gerais, Brasil;RUA SERGIPE, 1360, SAVASSI, Belo Horizonte, Minas Gerais, Brasil;XICO DO CHURRASCO SAVASSI;-19.9382457;-43.9384554;21-09-2011;NÃO;-1
RUA DONA MARIA SENHORA, 853, nan, DIAMANTE, Belo Horizonte, Minas Gerais, Brasil;RUA DONA MARIA SENHORA, 853, DIAMANTE, Belo Horizonte, Minas Gerais, Brasil;SELMO PEREIRA COIMBRA 95585494600;-19.9983722;-44.02238;06-10-2011;NÃO;-1
RUA CARLOS TORREZANI, 285, LOJA: 1,, LETICIA, Belo Horizonte, Minas Gerais, Brasil;RUA CARLOS TORREZANI, 285, LETICIA, Belo Horizonte, Minas Gerais, Brasil;CANTINA DO CHURRASCO;-19.8094611;-43.9804162;30-09-2011;SIM;-1
AVE RAJA GABAGLIA, 2664, TERREO1 SUBSL 1, ESTORIL, Belo Horizonte, Minas Gerais, Brasil;AVE RAJA GABAGLIA, 2664, ESTORIL, Belo Horizonte, Minas Gerais, Brasil;TOSCANINI CAFE;;;14-09-2011;SIM;-1
RUA DOUTOR JOAO MIRANDA, 188, APT 201, DONA CLARA, Belo Horizonte, Minas Gerais, Brasil;RUA DOUTOR JOAO MIRANDA, 188, DONA CLARA, Belo Horizonte, Minas Gerais, Brasil;EMANUELLA LARISSA VALADARES LIPARIZI 07264033694;-19.8612876;-43.9362088;25-09-2011;NÃO;-1
RUA CATALUNHA, 443, nan, SANTA TEREZINHA, Belo Horizonte, Minas Gerais, Brasil;RUA CATALUNHA, 443, SANTA TEREZINHA, Belo Horizonte, Minas Gerais, Brasil;MAURILO JOSE DUTRA FILHO 00490044689;-19.8725355;-44.0098436;26-09-2011;NÃO;-1
AVE OIAPOQUE, 221, LOJA A 13 ,ANDAR 3:, CENTRO, Belo Horizonte, Minas Gerais, Brasil;AVE OIAPOQUE, 221, CENTRO, Belo Horizonte, Minas Gerais, Brasil;VANESSA FERREIRA DE PAULA 06002963693;;;03-10-2011;NÃO;-1
RUA JOSE CLETO, 901, LOJA,, SANTA CRUZ, Belo Horizonte, Minas Gerais, Brasil;RUA JOSE CLETO, 901, SANTA CRUZ, Belo Horizonte, Minas Gerais, Brasil;TITIA ZITA;-19.8765417;-43.931516;02-09-2011;NÃO;-1
RUA ALABASTRO, 345, LOJA C, SAGRADA FAMILIA, Belo Horizonte, Minas Gerais, Brasil;RUA ALABASTRO, 345, SAGRADA FAMILIA, Belo Horizonte, Minas Gerais, Brasil;ADENILSON JOSE APARECIDO VIEIRA 04589142660;-19.9113359;-43.9208918;05-10-2011;NÃO;-1
RUA DA BAHIA, 615, LOJA 17, CENTRO, Belo Horizonte, Minas Gerais, Brasil;RUA DA BAHIA, 615, CENTRO, Belo Horizonte, Minas Gerais, Brasil;BAR E RESTAURANTE FORTUNA DE MINAS LTDA;-19.9214255;-43.9365262;08-02-1971;SIM;-1
RUA DOS GUARANIS, 600, nan, CENTRO, Belo Horizonte, Minas Gerais, Brasil;RUA DOS GUARANIS, 600, CENTRO, Belo Horizonte, Minas Gerais, Brasil;BAR DO GIL;-19.916232;-43.9423878;01-11-1978;SIM;-1
RUA DA BAHIA, 1403, LOJA A, LOURDES, Belo Horizonte, Minas Gerais, Brasil;RUA DA BAHIA, 1403, LOURDES, Belo Horizonte, Minas Gerais, Brasil;BAR E RESTAURANTE CHANTECLER LTDA;-19.9387179;-43.9412853;01-02-1957;NÃO;-1
RUA AUGUSTO DOS ANJOS, 743, LOJA, RIO BRANCO, Belo Horizonte, Minas Gerais, Brasil;RUA AUGUSTO DOS ANJOS, 743, RIO BRANCO, Belo Horizonte, Minas Gerais, Brasil;BAR RECANTO DA AMIZADE;-19.8182833;-43.9854839;26-06-1980;SIM;-1
AVE AUGUSTO DE LIMA, 744, LOJA 167, CENTRO, Belo Horizonte, Minas Gerais, Brasil;AVE AUGUSTO DE LIMA, 744, CENTRO, Belo Horizonte, Minas Gerais, Brasil;CASA CHEIA;;;01-11-1978;SIM;-1
RUA WILSON ROCHA LIMA, 80, nan, SANTA LUCIA, Belo Horizonte, Minas Gerais, Brasil;RUA WILSON ROCHA LIMA, 80, SANTA LUCIA, Belo Horizonte, Minas Gerais, Brasil;SUNTOR RESTAURANTE & CAFETERIA;-19.9704174;-43.9556202;30-12-2024;NÃO;-1
AVE GUARAPARI, 1166, LETRA A, SANTA AMELIA, Belo Horizonte, Minas Gerais, Brasil;AVE GUARAPARI, 1166, SANTA AMELIA, Belo Horizonte, Minas Gerais, Brasil;CHURRASCARIA SANTA AMELIA;;;15-09-1979;SIM;-1
AVE CRISTIANO MACHADO, 5480, nan, SAO PAULO, Belo Horizonte, Minas Gerais, Brasil;AVE CRISTIANO MACHADO, 5480, SAO PAULO, Belo Horizonte, Minas Gerais, Brasil;BAR E RESTAURANTE PENA VERDE LTDA;;;01-04-1981;SIM;-1
RUA DOS AIMORES, 1065, nan, BOA VIAGEM, Belo Horizonte, Minas Gerais, Brasil;RUA DOS AIMORES, 1065, BOA VIAGEM, Belo Horizonte, Minas Gerais, Brasil;LANCHES TROPPO BUONO LTDA;-19.9288081;-43.9364357;08-03-1982;NÃO;-1
RUA ESMERALDA, 604, nan, PRADO, Belo Horizonte, Minas Gerais, Brasil;RUA ESMERALDA, 604, PRADO, Belo Horizonte, Minas Gerais, Brasil;GUT BAR LTDA;-19.9267616;-43.9618748;02-01-1978;SIM;-1
RUA LAGOA DA PRATA, 480, nan, SALGADO FILHO, Belo Horizonte, Minas Gerais, Brasil;RUA LAGOA DA PRATA, 480, SALGADO FILHO, Belo Horizonte, Minas Gerais, Brasil;MESSIAS BAR LTDA;-19.9441832;-43.9838821;02-05-1977;SIM;-1
AVE OLEGARIO MACIEL, 714, BOX 107, CENTRO, Belo Horizonte, Minas Gerais, Brasil;AVE OLEGARIO MACIEL, 714, CENTRO, Belo Horizonte, Minas Gerais, Brasil;RESTAURANTE DO ZEQUINHA;;;01-07-1977;NÃO;-1
RUA ICANA, 33, nan, NOVA SUISSA, Belo Horizonte, Minas Gerais, Brasil;RUA ICANA, 33, NOVA SUISSA, Belo Horizonte, Minas Gerais, Brasil;LANCHONETE E MERCEARIA JEQUITINHONHA LTDA;-19.936467;-43.975442;01-11-1977;SIM;-1
RUA JACUI, 463, nan, COLEGIO BATISTA, Belo Horizonte, Minas Gerais, Brasil;RUA JACUI, 463, COLEGIO BATISTA, Belo Horizonte, Minas Gerais, Brasil;BAR ROSICLE;-19.9042516;-43.9323855;02-01-1962;SIM;-1
RUA CONSELHEIRO DANTAS, 6, nan, CALAFATE, Belo Horizonte, Minas Gerais, Brasil;RUA CONSELHEIRO DANTAS, 6, CALAFATE, Belo Horizonte, Minas Gerais, Brasil;BAR DA PRACA;-19.9240145;-43.9674524;02-04-1982;SIM;-1
RUA PENAFIEL, 186, nan, ANCHIETA, Belo Horizonte, Minas Gerais, Brasil;RUA PENAFIEL, 186, ANCHIETA, Belo Horizonte, Minas Gerais, Brasil;BAR E CAFE SANDRA LTDA;-19.9500233;-43.9270906;16-09-1964;NÃO;-1
AVE OLINTO MEIRELES, 316, nan, BARREIRO, Belo Horizonte, Minas Gerais, Brasil;AVE OLINTO MEIRELES, 316, BARREIRO, Belo Horizonte, Minas Gerais, Brasil;LELIA ALVES PEREIRA MARTINS;;;23-08-2011;NÃO;-1
RUA ELISIO DE BRITO, 205, nan, BOA VISTA, Belo Horizonte, Minas Gerais, Brasil;RUA ELISIO DE BRITO, 205, BOA VISTA, Belo Horizonte, Minas Gerais, Brasil;BAR SO LAZARO LTDA;-19.8962505;-43.90653;08-06-1977;SIM;-1
RUA SAO MATIAS, 143, nan, SAO SALVADOR, Belo Horizonte, Minas Gerais, Brasil;RUA SAO MATIAS, 143, SAO SALVADOR, Belo Horizonte, Minas Gerais, Brasil;SORVETERIA TEIXEIRA LTDA;-19.8904765;-44.0135417;15-08-1979;NÃO;-1
RUA CAMPO FORMOSO, 166, nan, SALGADO FILHO, Belo Horizonte, Minas Gerais, Brasil;RUA CAMPO FORMOSO, 166, SALGADO FILHO, Belo Horizonte, Minas Gerais, Brasil;BAR CAMPO FORMOSO LTDA;-19.9469299;-43.9857617;01-11-1980;NÃO;-1
RUA ALAGOAS, 763, nan, SAVASSI, Belo Horizonte, Minas Gerais, Brasil;RUA ALAGOAS, 763, SAVASSI, Belo Horizonte, Minas Gerais, Brasil;CHL LIMITADA;-19.9342903;-43.9359366;24-08-1981;NÃO;-1
AVE OLEGARIO MACIEL, 474, LOJA: B,, CENTRO, Belo Horizonte, Minas Gerais, Brasil;AVE OLEGARIO MACIEL, 474, CENTRO, Belo Horizonte, Minas Gerais, Brasil;GULU BAR E RESTAURANTE LTDA;;;22-08-2011;SIM;-1
RUA ELISIO DE BRITO, 395, nan, BOA VISTA, Belo Horizonte, Minas Gerais, Brasil;RUA ELISIO DE BRITO, 395, BOA VISTA, Belo Horizonte, Minas Gerais, Brasil;JAIME BOTELHO DE LIMA;-19.8962505;-43.90653;01-10-1969;NÃO;-1
RUA DOS TAMOIOS, 499, nan, CENTRO, Belo Horizonte, Minas Gerais, Brasil;RUA DOS TAMOIOS, 499, CENTRO, Belo Horizonte, Minas Gerais, Brasil;BAR E CAFE BEIRUTE LTDA;-19.9198038;-43.9410821;01-01-1955;SIM;-1
AVE AUGUSTO DE LIMA, 744, LOJA 115, CENTRO, Belo Horizonte, Minas Gerais, Brasil;AVE AUGUSTO DE LIMA, 744, CENTRO, Belo Horizonte, Minas Gerais, Brasil;BAR DA LORA;;;01-03-1973;SIM;-1
AVE OLEGARIO MACIEL, 2280, nan, SANTO AGOSTINHO, Belo Horizonte, Minas Gerais, Brasil;AVE OLEGARIO MACIEL, 2280, SANTO AGOSTINHO, Belo Horizonte, Minas Gerais, Brasil;PIZZARELLA;;;10-12-1971;SIM;-1
RUA PADRE EUSTAQUIO, 2494, LOJA: 00,, PADRE EUSTAQUIO, Belo Horizonte, Minas Gerais, Brasil;RUA PADRE EUSTAQUIO, 2494, PADRE EUSTAQUIO, Belo Horizonte, Minas Gerais, Brasil;BOLA BAR;-19.9174447;-43.9776856;01-07-1980;SIM;-1
RUA PINHEIRO CHAGAS, 406, nan, BARREIRO, Belo Horizonte, Minas Gerais, Brasil;RUA PINHEIRO CHAGAS, 406, BARREIRO, Belo Horizonte, Minas Gerais, Brasil;BAR E RESTAURANTE TRUPICO MINEIRO LTDA;-19.980685;-44.0128009;20-07-1980;SIM;-1
AVE PROFESSOR ALFREDO BALENA, 190, SETOR: RU SAUDE,, SANTA EFIGENIA, Belo Horizonte, Minas Gerais, Brasil;AVE PROFESSOR ALFREDO BALENA, 190, SANTA EFIGENIA, Belo Horizonte, Minas Gerais, Brasil;RESTAURANTE CAMPUS SAUDE;;;29-10-2012;SIM;-1
AVE ALVARES CABRAL, 211, SUBSL: RU DIREITO,, CENTRO, Belo Horizonte, Minas Gerais, Brasil;AVE ALVARES CABRAL, 211, CENTRO, Belo Horizonte, Minas Gerais, Brasil;RESTAURANTE FACULDADE DE DIREITO;;;29-10-2012;SIM;-1
AVE PRESIDENTE ANTONIO CARLOS, 6627, SETOR: RU SETORIAL II,, CAMPUS UFMG, Belo Horizonte, Minas Gerais, Brasil;AVE PRESIDENTE ANTONIO CARLOS, 6627, CAMPUS UFMG, Belo Horizonte, Minas Gerais, Brasil;RESTAURANTE CAMPUS PAMPULHA-SETORIAL II;;;29-10-2012;NÃO;-1
AVE PRESIDENTE ANTONIO CARLOS, 6627, SETOR: RU SETORIAL I,, CAMPUS UFMG, Belo Horizonte, Minas Gerais, Brasil;AVE PRESIDENTE ANTONIO CARLOS, 6627, CAMPUS UFMG, Belo Horizonte, Minas Gerais, Brasil;RESTAURANTE CAMPUS PAMPULHA-SETORIAL I;;;29-10-2012;NÃO;-1
RUA CURITIBA, 1022, LOJA 106, CENTRO, Belo Horizonte, Minas Gerais, Brasil;RUA CURITIBA, 1022, CENTRO, Belo Horizonte, Minas Gerais, Brasil;BAR E LANCHONETE ARUAQUES LTDA;-19.9122466;-43.9396533;11-09-1980;SIM;-1
RUA DA BAHIA, 1172, nan, CENTRO, Belo Horizonte, Minas Gerais, Brasil;RUA DA BAHIA, 1172, CENTRO, Belo Horizonte, Minas Gerais, Brasil;RESTAURANTE MARGHERITA LTDA;-19.9152382;-43.9347817;01-10-1980;SIM;-1
RUA JERUSALEM, 10, nan, GLORIA, Belo Horizonte, Minas Gerais, Brasil;RUA JERUSALEM, 10, GLORIA, Belo Horizonte, Minas Gerais, Brasil;MANOEL MAURO SALES;-19.8967793;-44.0136058;01-08-1980;SIM;-1
ROD ANEL RODOVIARIO CELSO MELLO AZEVEDO, 1195, nan, JOAO PINHEIRO, Belo Horizonte, Minas Gerais, Brasil;ROD ANEL RODOVIARIO CELSO MELLO AZEVEDO, 1195, JOAO PINHEIRO, Belo Horizonte, Minas Gerais, Brasil;RESTAURANTE XICO DA KAFUA LTDA;;;01-02-1981;NÃO;-1
AVE BIAS FORTES, 1411, LOJA, BARRO PRETO, Belo Horizonte, Minas Gerais, Brasil;AVE BIAS FORTES, 1411, BARRO PRETO, Belo Horizonte, Minas Gerais, Brasil;14.170.992 JADEM MAXIMILIANO MARTINS;;;23-08-2011;NÃO;-1
RUA ELISIO DE BRITO, 409, nan, BOA VISTA, Belo Horizonte, Minas Gerais, Brasil;RUA ELISIO DE BRITO, 409, BOA VISTA, Belo Horizonte, Minas Gerais, Brasil;BAR MARAJO LTDA;-19.8956264;-43.9036927;26-12-1966;SIM;-1
RUA RAUL MENDES, 151, LOJA C, FLORESTA, Belo Horizonte, Minas Gerais, Brasil;RUA RAUL MENDES, 151, FLORESTA, Belo Horizonte, Minas Gerais, Brasil;BAR E CAFE GARAPA;-19.9159767;-43.9272245;14-09-1967;SIM;-1
RUA CORONEL PEDRO PAULO PENIDO, 495, nan, CIDADE NOVA, Belo Horizonte, Minas Gerais, Brasil;RUA CORONEL PEDRO PAULO PENIDO, 495, CIDADE NOVA, Belo Horizonte, Minas Gerais, Brasil;DRUIDA LANCHES LTDA;-19.887594;-43.9257948;01-10-1981;SIM;-1
RUA DOS TUPIS, 871, LJ., CENTRO, Belo Horizonte, Minas Gerais, Brasil;RUA DOS TUPIS, 871, CENTRO, Belo Horizonte, Minas Gerais, Brasil;BAR E RESTAURANTE RIO NOVO LTDA;-19.921096;-43.9412527;12-05-1969;SIM;-1
RUA CACONDE, 71, nan, NOVA FLORESTA, Belo Horizonte, Minas Gerais, Brasil;RUA CACONDE, 71, NOVA FLORESTA, Belo Horizonte, Minas Gerais, Brasil;BAR NUNES E BRAGA LTDA;-19.8907765;-43.9359039;01-03-1979;NÃO;-1
AVE SANTA TEREZINHA, 770, LOJA 02, SANTA TEREZINHA, Belo Horizonte, Minas Gerais, Brasil;AVE SANTA TEREZINHA, 770, SANTA TEREZINHA, Belo Horizonte, Minas Gerais, Brasil;ZE DO ESPETO;;;10-02-1979;SIM;-1
RUA RIO DE JANEIRO, 630, LOJA 47 48 49 E 50, CENTRO, Belo Horizonte, Minas Gerais, Brasil;RUA RIO DE JANEIRO, 630, CENTRO, Belo Horizonte, Minas Gerais, Brasil;BAR RESTAURANTE E PIZZARIA FORMULA 1 LTDA;-19.916289;-43.937828;01-12-1976;NÃO;-1
RUA GERALDO TEIXEIRA DA COSTA, 212, E 216, FLORESTA, Belo Horizonte, Minas Gerais, Brasil;RUA GERALDO TEIXEIRA DA COSTA, 212, FLORESTA, Belo Horizonte, Minas Gerais, Brasil;BAR E RESTAURANTE ITATIAIA LTDA;-19.9196406;-43.9315824;29-05-1962;NÃO;-1
RUA DOS TUPIS, 369, nan, CENTRO, Belo Horizonte, Minas Gerais, Brasil;RUA DOS TUPIS, 369, CENTRO, Belo Horizonte, Minas Gerais, Brasil;GRUTA MARA LTDA;-19.921096;-43.9412527;24-04-1963;NÃO;-1
AVE AUGUSTO DE LIMA, 744, LOJA 9 E 10, CENTRO, Belo Horizonte, Minas Gerais, Brasil;AVE AUGUSTO DE LIMA, 744, CENTRO, Belo Horizonte, Minas Gerais, Brasil;BAR FORTALEZA LTDA;;;01-01-1968;SIM;-1
RUA DO OURO, 895, nan, SERRA, Belo Horizonte, Minas Gerais, Brasil;RUA DO OURO, 895, SERRA, Belo Horizonte, Minas Gerais, Brasil;BAR DO SALOMAO;-19.9472103;-43.918542;01-05-1952;NÃO;-1
RUA NIQUEL, 246, LOJA, SERRA, Belo Horizonte, Minas Gerais, Brasil;RUA NIQUEL, 246, SERRA, Belo Horizonte, Minas Gerais, Brasil;BAR AUAD LTDA;-19.940924;-43.9171593;08-08-1966;SIM;-1
RUA CARMO DA MATA, 644, nan, SAUDADE, Belo Horizonte, Minas Gerais, Brasil;RUA CARMO DA MATA, 644, SAUDADE, Belo Horizonte, Minas Gerais, Brasil;BAR E MERCEARIA MOREIRA LTDA;-19.9131095;-43.8983513;10-10-1974;SIM;-1
RUA MONTE VERDE, 213, nan, SAO SALVADOR, Belo Horizonte, Minas Gerais, Brasil;RUA MONTE VERDE, 213, SAO SALVADOR, Belo Horizonte, Minas Gerais, Brasil;DISTRIBUIDORA DE BEBIDAS CHOPPLANDIA;-19.8915056;-44.0108807;06-02-1962;SIM;-1
RUA PARACATU, 905, nan, BARRO PRETO, Belo Horizonte, Minas Gerais, Brasil;RUA PARACATU, 905, BARRO PRETO, Belo Horizonte, Minas Gerais, Brasil;LANCHONETE PARACATU LTDA;-19.9248402;-43.9526088;03-11-1981;SIM;-1
AVE AUGUSTO DE LIMA, 744, LOJA 1004, CENTRO, Belo Horizonte, Minas Gerais, Brasil;AVE AUGUSTO DE LIMA, 744, CENTRO, Belo Horizonte, Minas Gerais, Brasil;BAR DA TIA;;;01-09-1981;SIM;-1
AVE AUGUSTO DE LIMA, 1288, A, BARRO PRETO, Belo Horizonte, Minas Gerais, Brasil;AVE AUGUSTO DE LIMA, 1288, BARRO PRETO, Belo Horizonte, Minas Gerais, Brasil;RIBAS LANCHES LTDA;;;01-10-1977;SIM;-1
RUA DOS GUARANIS, 560, nan, CENTRO, Belo Horizonte, Minas Gerais, Brasil;RUA DOS GUARANIS, 560, CENTRO, Belo Horizonte, Minas Gerais, Brasil;TOP LANCHES LTDA;-19.916232;-43.9423878;20-06-1972;SIM;-1
RUA DOS TUPINAMBAS, 638, nan, CENTRO, Belo Horizonte, Minas Gerais, Brasil;RUA DOS TUPINAMBAS, 638, CENTRO, Belo Horizonte, Minas Gerais, Brasil;CAFE PALHARES;-19.918438;-43.9360596;16-09-1955;SIM;45
RUA DOS ASTECAS, 2670, nan, SANTA MONICA, Belo Horizonte, Minas Gerais, Brasil;RUA DOS ASTECAS, 2670, SANTA MONICA, Belo Horizonte, Minas Gerais, Brasil;PIZZARIA OPCAO;-19.8317919;-43.9768669;15-10-1981;SIM;-1
AVE AUGUSTO DE LIMA, 744, LOJA: 608, SETOR: ALVENARIA 02,, CENTRO, Belo Horizonte, Minas Gerais, Brasil;AVE AUGUSTO DE LIMA, 744, CENTRO, Belo Horizonte, Minas Gerais, Brasil;BAR E CAFE SAO JUDAS LTDA;;;15-10-1979;NÃO;-1
RUA FLORIDA, 15, nan, SION, Belo Horizonte, Minas Gerais, Brasil;RUA FLORIDA, 15, SION, Belo Horizonte, Minas Gerais, Brasil;BAR DO ANTONIO;-19.9485952;-43.9338742;13-10-1976;SIM;-1
RUA FLORIDA, 31, nan, SION, Belo Horizonte, Minas Gerais, Brasil;RUA FLORIDA, 31, SION, Belo Horizonte, Minas Gerais, Brasil;BAR DO ANTONIO LIMITADA;-19.9489897;-43.9322579;22-08-2006;NÃO;-1
RUA TALES, 30, nan, NAZARE, Belo Horizonte, Minas Gerais, Brasil;RUA TALES, 30, NAZARE, Belo Horizonte, Minas Gerais, Brasil;JOSE EDUARDO AVELINO DA CRUZ 22274685649;-19.8484659;-43.8976707;01-10-2012;NÃO;-1
RUA BOLIVAR, 263, LOJA, UNIAO, Belo Horizonte, Minas Gerais, Brasil;RUA BOLIVAR, 263, UNIAO, Belo Horizonte, Minas Gerais, Brasil;ROSILENE JULIA PINTO 88275671604;-19.8819612;-43.9250741;19-10-2012;NÃO;-1
RUA DAS PERPETUAS, 135, nan, LINDEIA, Belo Horizonte, Minas Gerais, Brasil;RUA DAS PERPETUAS, 135, LINDEIA, Belo Horizonte, Minas Gerais, Brasil;EDNEI GUERCY NESTOR 05773188619;-19.9786436;-44.0485452;20-10-2012;NÃO;-1
RUA JOSE AMERICO DE ALMEIDA, 411, nan, CAMARGOS, Belo Horizonte, Minas Gerais, Brasil;RUA JOSE AMERICO DE ALMEIDA, 411, CAMARGOS, Belo Horizonte, Minas Gerais, Brasil;CLODOALDO ANTONIO DE FARIA 48335711615;-19.9429787;-44.0140797;21-10-2012;NÃO;-1
RUA EDUARDO LEITE BACURI, 73, nan, ALTA TENSAO I, Belo Horizonte, Minas Gerais, Brasil;RUA EDUARDO LEITE BACURI, 73, ALTA TENSAO I, Belo Horizonte, Minas Gerais, Brasil;WELLINGTON PEREIRA PORTO 07313165684;;;31-10-2012;NÃO;-1
RUA CECILIA PINTO, 173, nan, SAO BERNARDO, Belo Horizonte, Minas Gerais, Brasil;RUA CECILIA PINTO, 173, SAO BERNARDO, Belo Horizonte, Minas Gerais, Brasil;CARLINDO AUGUSTO FERREIRA 90138740615;;;01-11-2012;NÃO;-1
AVE PADRE JOSE MAURICIO, 723, LOJA 2, VISTA ALEGRE, Belo Horizonte, Minas Gerais, Brasil;AVE PADRE JOSE MAURICIO, 723, VISTA ALEGRE, Belo Horizonte, Minas Gerais, Brasil;ADENICE APARECIDA DA SILVA 95701516687;;;02-10-2012;NÃO;-1
RUA CRACOVIA, 87, BRCAO, EUROPA, Belo Horizonte, Minas Gerais, Brasil;RUA CRACOVIA, 87, EUROPA, Belo Horizonte, Minas Gerais, Brasil;MARIA ALICE ALVES DE OLIVEIRA 27510034604;-19.7986148;-43.965846;02-10-2012;NÃO;-1
RUA OITO, 63, LOJA, VISTA DO SOL, Belo Horizonte, Minas Gerais, Brasil;RUA OITO, 63, VISTA DO SOL, Belo Horizonte, Minas Gerais, Brasil;NEUZA DOMINGOS DA CUNHA 85877735691;-19.8483678;-43.89021;02-11-2012;NÃO;-1
RUA ASTOLFO DUTRA, 953, nan, VERA CRUZ, Belo Horizonte, Minas Gerais, Brasil;RUA ASTOLFO DUTRA, 953, VERA CRUZ, Belo Horizonte, Minas Gerais, Brasil;MARIA JOSE DE SOUSA PEREIRA;-19.9080409;-43.8968606;01-04-2003;NÃO;-1
RUA CONDE DE LINHARES, 725, nan, CORACAO DE JESUS, Belo Horizonte, Minas Gerais, Brasil;RUA CONDE DE LINHARES, 725, CORACAO DE JESUS, Belo Horizonte, Minas Gerais, Brasil;RESTAURANTE E PIZZARIA LANINHO LTDA;-19.9435392;-43.9496401;29-04-2003;SIM;-1
AVE CRISTOVAO COLOMBO, 550, LOJA 00004, SAVASSI, Belo Horizonte, Minas Gerais, Brasil;AVE CRISTOVAO COLOMBO, 550, SAVASSI, Belo Horizonte, Minas Gerais, Brasil;PARREIRAS PRATES ALIMENTICIO LTDA;;;19-05-2003;SIM;-1
RUA ARAGUARI, 1443, LOJA 06, SANTO AGOSTINHO, Belo Horizonte, Minas Gerais, Brasil;RUA ARAGUARI, 1443, SANTO AGOSTINHO, Belo Horizonte, Minas Gerais, Brasil;ABROLHOS;-19.9304115;-43.9513723;11-03-2003;SIM;-1
RUA CARANGOLA, 358, nan, SANTO ANTONIO, Belo Horizonte, Minas Gerais, Brasil;RUA CARANGOLA, 358, SANTO ANTONIO, Belo Horizonte, Minas Gerais, Brasil;TANUKI ALIMENTOS LTDA;-19.9425929;-43.9424838;05-08-2002;NÃO;-1
RUA MANOEL ELIAS DE AGUIAR, 125, nan, OURO PRETO, Belo Horizonte, Minas Gerais, Brasil;RUA MANOEL ELIAS DE AGUIAR, 125, OURO PRETO, Belo Horizonte, Minas Gerais, Brasil;LE PETIT EVENTOS;-19.8741165;-43.9883188;02-01-2003;SIM;-1
RUA ANTONIO DE ALBUQUERQUE, 395, nan, SAVASSI, Belo Horizonte, Minas Gerais, Brasil;RUA ANTONIO DE ALBUQUERQUE, 395, SAVASSI, Belo Horizonte, Minas Gerais, Brasil;POINT BAIANO BAR E RESTAURANTE LTDA;-19.9392106;-43.9311759;22-04-2002;SIM;-1
RUA RIO DE JANEIRO, 1411, nan, LOURDES, Belo Horizonte, Minas Gerais, Brasil;RUA RIO DE JANEIRO, 1411, LOURDES, Belo Horizonte, Minas Gerais, Brasil;BAR DA CACIA LTDA;;;11-07-2001;SIM;-1
AVE GETULIO VARGAS, 286, MZNINO,, FUNCIONARIOS, Belo Horizonte, Minas Gerais, Brasil;AVE GETULIO VARGAS, 286, FUNCIONARIOS, Belo Horizonte, Minas Gerais, Brasil;RESTAURANTE BRISTOL METROPOLITAN LTDA.;;;14-09-2001;NÃO;-1
AVE AUGUSTO DE LIMA, 744, LOJA 04 06, CENTRO, Belo Horizonte, Minas Gerais, Brasil;AVE AUGUSTO DE LIMA, 744, CENTRO, Belo Horizonte, Minas Gerais, Brasil;CHOPERIA BOM GRILL LTDA;;;22-04-2003;SIM;-1
RUA AMERICO MARTINS DA COSTA, 431, LOJA, MINASLANDIA, Belo Horizonte, Minas Gerais, Brasil;RUA AMERICO MARTINS DA COSTA, 431, MINASLANDIA, Belo Horizonte, Minas Gerais, Brasil;PAULO REIS DE BARROS;-19.8526533;-43.9271284;10-09-2001;SIM;-1
AVE ABILIO MACHADO, 1867, LOJA 03, GLORIA, Belo Horizonte, Minas Gerais, Brasil;AVE ABILIO MACHADO, 1867, GLORIA, Belo Horizonte, Minas Gerais, Brasil;RESTAURANTE E LANCHONETE ZANETTI E MARTINS LTDA.;;;02-07-2001;NÃO;-1
RUA EXPEDICIONARIO CELSO RACIOPPI, 584, nan, OURO PRETO, Belo Horizonte, Minas Gerais, Brasil;RUA EXPEDICIONARIO CELSO RACIOPPI, 584, OURO PRETO, Belo Horizonte, Minas Gerais, Brasil;BAR E LANCHONETE GANGULINO'S LTDA;-19.8655341;-43.9831013;09-12-1997;NÃO;-1
AVE FLEMING, 294, nan, OURO PRETO, Belo Horizonte, Minas Gerais, Brasil;AVE FLEMING, 294, OURO PRETO, Belo Horizonte, Minas Gerais, Brasil;BAR E BOI;;;20-02-2002;SIM;-1
RUA DORES DO INDAIA, 409, nan, SANTA TEREZA, Belo Horizonte, Minas Gerais, Brasil;RUA DORES DO INDAIA, 409, SANTA TEREZA, Belo Horizonte, Minas Gerais, Brasil;ESTACAO PARADA DO CARDOSO PIZZARIA E RESTAURANTE LTDA;-19.9158524;-43.9105711;15-06-2000;SIM;-1
RUA FERNANDES TOURINHO, 503, ANDAR 2, SAVASSI, Belo Horizonte, Minas Gerais, Brasil;RUA FERNANDES TOURINHO, 503, SAVASSI, Belo Horizonte, Minas Gerais, Brasil;BERILO SAVASSI LTDA;-19.9387593;-43.9395336;20-11-2002;SIM;-1
ROD BR TREZENTOS E CINQUENTA E SEIS, 3049, LOJA: 68-69 OP,, BELVEDERE, Belo Horizonte, Minas Gerais, Brasil;ROD BR TREZENTOS E CINQUENTA E SEIS, 3049, BELVEDERE, Belo Horizonte, Minas Gerais, Brasil;RESTAURANTE TRATTORIA GRILL II LTDA;;;15-06-1999;SIM;-1
ROD ANEL RODOVIARIO CELSO MELLO AZEVEDO, 28500, LOJA 01, JARDIM VITORIA, Belo Horizonte, Minas Gerais, Brasil;ROD ANEL RODOVIARIO CELSO MELLO AZEVEDO, 28500, JARDIM VITORIA, Belo Horizonte, Minas Gerais, Brasil;COMERCIAL LINS & GUEDES LTDA;;;01-10-2002;SIM;-1
AVE AMAZONAS, 717, LOJA 02, CENTRO, Belo Horizonte, Minas Gerais, Brasil;AVE AMAZONAS, 717, CENTRO, Belo Horizonte, Minas Gerais, Brasil;EXPRESSA GULA;;;06-05-2002;SIM;-1
RUA DOS CAETES, 15, LOJA 01, CENTRO, Belo Horizonte, Minas Gerais, Brasil;RUA DOS CAETES, 15, CENTRO, Belo Horizonte, Minas Gerais, Brasil;BREGUEZ BAR LTDA;-19.9157411;-43.9417613;05-07-2002;NÃO;-1
RUA MATO GROSSO, 960, LOJA 05, SANTO AGOSTINHO, Belo Horizonte, Minas Gerais, Brasil;RUA MATO GROSSO, 960, SANTO AGOSTINHO, Belo Horizonte, Minas Gerais, Brasil;DUCARMO SELF SERVICE LTDA;-19.9253573;-43.9486157;10-07-2002;SIM;-1
RUA CAMBE, 681, nan, COQUEIROS, Belo Horizonte, Minas Gerais, Brasil;RUA CAMBE, 681, COQUEIROS, Belo Horizonte, Minas Gerais, Brasil;DEOCLIDES VIEIRA DE PAULA;-19.9016406;-44.0239021;01-04-2001;NÃO;-1
RUA CLAUDIO MANOEL, 463, LOJA 4, SAVASSI, Belo Horizonte, Minas Gerais, Brasil;RUA CLAUDIO MANOEL, 463, SAVASSI, Belo Horizonte, Minas Gerais, Brasil;GRAOS DA TERRA;-19.9334519;-43.9334767;12-08-2002;SIM;-1
RUA CAXAMBU, 37, nan, LAGOINHA, Belo Horizonte, Minas Gerais, Brasil;RUA CAXAMBU, 37, LAGOINHA, Belo Horizonte, Minas Gerais, Brasil;DODORA RESTAURANTE E LANCHONETE LTDA;-19.9057636;-43.9455982;06-03-2001;NÃO;-1
RUA COBRE, 200, nan, CRUZEIRO, Belo Horizonte, Minas Gerais, Brasil;RUA COBRE, 200, CRUZEIRO, Belo Horizonte, Minas Gerais, Brasil;ALIMENDES;-19.9435634;-43.925382;01-07-1994;NÃO;-1
RUA ALCIDES LOBO, 45, nan, JOAO PINHEIRO, Belo Horizonte, Minas Gerais, Brasil;RUA ALCIDES LOBO, 45, JOAO PINHEIRO, Belo Horizonte, Minas Gerais, Brasil;BAR TRADICAO DO PEIXE LTDA;-19.9308719;-43.9950081;21-12-2000;SIM;-1
RUA PADRE TIAGO DE ALMEIDA, 311, LOJA A, CAMARGOS, Belo Horizonte, Minas Gerais, Brasil;RUA PADRE TIAGO DE ALMEIDA, 311, CAMARGOS, Belo Horizonte, Minas Gerais, Brasil;ELIZABETE PEREIRA DA SILVA - CPF 796.721.086-72;-19.9395228;-44.0211789;09-04-2001;NÃO;-1
AVE AGGEO PIO SOBRINHO, 420, LOJA 10, BURITIS, Belo Horizonte, Minas Gerais, Brasil;AVE AGGEO PIO SOBRINHO, 420, BURITIS, Belo Horizonte, Minas Gerais, Brasil;PIZZA-CREK;;;11-08-2003;NÃO;-1
RUA SENADOR LIMA GUIMARAES, 531, nan, OLHOS D'AGUA, Belo Horizonte, Minas Gerais, Brasil;RUA SENADOR LIMA GUIMARAES, 531, OLHOS D'AGUA, Belo Horizonte, Minas Gerais, Brasil;RESTAURANTE MESA DE MINAS;;;28-03-2003;SIM;-1
AVE OLEGARIO MACIEL, 283, nan, CENTRO, Belo Horizonte, Minas Gerais, Brasil;AVE OLEGARIO MACIEL, 283, CENTRO, Belo Horizonte, Minas Gerais, Brasil;BANQUETE MINEIRO;;;20-04-2001;SIM;-1
AVE DO CONTORNO, 1468, nan, FLORESTA, Belo Horizonte, Minas Gerais, Brasil;AVE DO CONTORNO, 1468, FLORESTA, Belo Horizonte, Minas Gerais, Brasil;BONECA DE LILI;;;08-11-1999;SIM;-1
RUA PARU, 1067, nan, NOVA FLORESTA, Belo Horizonte, Minas Gerais, Brasil;RUA PARU, 1067, NOVA FLORESTA, Belo Horizonte, Minas Gerais, Brasil;EM 2 BAR E RESTAURANTE LTDA;-19.8895086;-43.9352269;24-07-2002;SIM;-1
AVE BARAO HOMEM DE MELO, 4317, nan, ESTORIL, Belo Horizonte, Minas Gerais, Brasil;AVE BARAO HOMEM DE MELO, 4317, ESTORIL, Belo Horizonte, Minas Gerais, Brasil;JACKIE TEQUILA BAR E RESTAURANTE LTDA;;;01-06-1999;NÃO;-1
RUA DA BAHIA, 2652, nan, LOURDES, Belo Horizonte, Minas Gerais, Brasil;RUA DA BAHIA, 2652, LOURDES, Belo Horizonte, Minas Gerais, Brasil;EDDIE FINE BURGUERS;-19.9382063;-43.9411433;01-02-2002;SIM;-1
RUA BERNARDO GUIMARAES, 2394, LOJA BG41, SANTO AGOSTINHO, Belo Horizonte, Minas Gerais, Brasil;RUA BERNARDO GUIMARAES, 2394, SANTO AGOSTINHO, Belo Horizonte, Minas Gerais, Brasil;CARNES E SALADAS DIAMOND MALL LTDA;-19.9274866;-43.9471836;01-09-2001;SIM;-1
RUA SAPUCAI, 429, ANDAR: 3,, FLORESTA, Belo Horizonte, Minas Gerais, Brasil;RUA SAPUCAI, 429, FLORESTA, Belo Horizonte, Minas Gerais, Brasil;DELLICIAS DA VILLA LTDA;-19.9162434;-43.9322717;11-09-2001;SIM;-1
AVE OLEGARIO MACIEL, 1600, LOJA BG 71, SANTO AGOSTINHO, Belo Horizonte, Minas Gerais, Brasil;AVE OLEGARIO MACIEL, 1600, SANTO AGOSTINHO, Belo Horizonte, Minas Gerais, Brasil;SP BELO HORIZONTE- 2002 BAR E RESTAURANTE LTDA;;;06-08-2002;SIM;-1
RUA JUNO, 365, nan, GLORIA, Belo Horizonte, Minas Gerais, Brasil;RUA JUNO, 365, GLORIA, Belo Horizonte, Minas Gerais, Brasil;MARIA DAS GRACAS TAVARES MALTA;-19.9137197;-44.0046992;11-12-2000;NÃO;-1
RUA TOMAZ GONZAGA, 593, nan, LOURDES, Belo Horizonte, Minas Gerais, Brasil;RUA TOMAZ GONZAGA, 593, LOURDES, Belo Horizonte, Minas Gerais, Brasil;D'ARTAGNAN;-19.9327796;-43.9417401;19-03-2001;SIM;-1
RUA ALVARENGA PEIXOTO, 1207, LOJA 01, SANTO AGOSTINHO, Belo Horizonte, Minas Gerais, Brasil;RUA ALVARENGA PEIXOTO, 1207, SANTO AGOSTINHO, Belo Horizonte, Minas Gerais, Brasil;ALVARENGA GLUTEN FREE;-19.9298142;-43.9482856;02-06-2015;SIM;-1
PCA DAS CONSTELACOES, 143, LOJA 5, SANTA LUCIA, Belo Horizonte, Minas Gerais, Brasil;PCA DAS CONSTELACOES, 143, SANTA LUCIA, Belo Horizonte, Minas Gerais, Brasil;BELLA VENEZIA;;;15-10-2002;SIM;-1
RUA DOS CANOEIROS, 261, nan, SANTA MONICA, Belo Horizonte, Minas Gerais, Brasil;RUA DOS CANOEIROS, 261, SANTA MONICA, Belo Horizonte, Minas Gerais, Brasil;EDSON QUINTINO ALVES;-19.8292634;-43.9770421;14-12-2001;SIM;-1
AVE DOM JOAO VI, 1601, LOJA 01, PALMEIRAS, Belo Horizonte, Minas Gerais, Brasil;AVE DOM JOAO VI, 1601, PALMEIRAS, Belo Horizonte, Minas Gerais, Brasil;LUIZ CARLOS DA SILVA - BAR;;;18-10-2001;NÃO;-1
RUA ANORI, 5, nan, SAO GABRIEL, Belo Horizonte, Minas Gerais, Brasil;RUA ANORI, 5, SAO GABRIEL, Belo Horizonte, Minas Gerais, Brasil;RESTAURANTE LILEGAL;-19.8541789;-43.9165837;11-05-2001;SIM;-1
RUA MONTES CLAROS, 1112, LOJA 03, ANCHIETA, Belo Horizonte, Minas Gerais, Brasil;RUA MONTES CLAROS, 1112, ANCHIETA, Belo Horizonte, Minas Gerais, Brasil;BOTEQUIM ROLA PAPO;-19.9490275;-43.9251943;23-10-2002;SIM;-1
AVE LUIZ PAULO FRANCO, 420, LOJA: 06-07,, BELVEDERE, Belo Horizonte, Minas Gerais, Brasil;AVE LUIZ PAULO FRANCO, 420, BELVEDERE, Belo Horizonte, Minas Gerais, Brasil;RTM REFEICOES LTDA;;;01-02-2002;SIM;-1
RUA DO URUGUAI, 719, nan, SION, Belo Horizonte, Minas Gerais, Brasil;RUA DO URUGUAI, 719, SION, Belo Horizonte, Minas Gerais, Brasil;SION ALIMENTACAO LTDA;-19.9524107;-43.9313009;05-04-2001;SIM;-1
AVE GETULIO VARGAS, 823, nan, SAVASSI, Belo Horizonte, Minas Gerais, Brasil;AVE GETULIO VARGAS, 823, SAVASSI, Belo Horizonte, Minas Gerais, Brasil;ORGANIZACAO BERSAN PEREIRA LTDA;;;22-11-2001;NÃO;-1
RUA MALVA ROSA, 185, nan, JULIANA, Belo Horizonte, Minas Gerais, Brasil;RUA MALVA ROSA, 185, JULIANA, Belo Horizonte, Minas Gerais, Brasil;MARIA DAS GRACAS MOREIRA;-19.8116722;-43.9408124;20-06-2002;NÃO;-1
AVE LUIZ PAULO FRANCO, 721, nan, BELVEDERE, Belo Horizonte, Minas Gerais, Brasil;AVE LUIZ PAULO FRANCO, 721, BELVEDERE, Belo Horizonte, Minas Gerais, Brasil;GRACILIANO PAES LTDA;;;15-01-2002;SIM;-1
AVE JEQUITINHONHA, 860, nan, ALTO VERA CRUZ, Belo Horizonte, Minas Gerais, Brasil;AVE JEQUITINHONHA, 860, ALTO VERA CRUZ, Belo Horizonte, Minas Gerais, Brasil;BYE BAR BRASIL LTDA;;;01-02-2001;NÃO;-1
RUA CURITIBA, 2069, LOJA 101, LOURDES, Belo Horizonte, Minas Gerais, Brasil;RUA CURITIBA, 2069, LOURDES, Belo Horizonte, Minas Gerais, Brasil;BOI LOURDES COMERCIO LTDA;-19.928828;-43.9440502;01-04-2003;SIM;-1
RUA MARCOS ANTONIO CAVANIS, 60, nan, BRAUNAS, Belo Horizonte, Minas Gerais, Brasil;RUA MARCOS ANTONIO CAVANIS, 60, BRAUNAS, Belo Horizonte, Minas Gerais, Brasil;GUERRA ALIMENTACAO LTDA;-19.8467513;-44.0076906;01-07-2000;SIM;-1
RUA DOS GOITACAZES, 376, SLJ,, CENTRO, Belo Horizonte, Minas Gerais, Brasil;RUA DOS GOITACAZES, 376, CENTRO, Belo Horizonte, Minas Gerais, Brasil;COZINHA MINEIRA;-19.9226105;-43.940276;10-01-2003;SIM;-1
AVE CARANDAI, 840, nan, SANTA EFIGENIA, Belo Horizonte, Minas Gerais, Brasil;AVE CARANDAI, 840, SANTA EFIGENIA, Belo Horizonte, Minas Gerais, Brasil;DONNA MARGHERITA;;;20-06-2002;SIM;-1
RUA CAMPOS SALES, 380, LOJA 03, CALAFATE, Belo Horizonte, Minas Gerais, Brasil;RUA CAMPOS SALES, 380, CALAFATE, Belo Horizonte, Minas Gerais, Brasil;JAO BAR;;;27-02-2002;SIM;-1
AVE AFONSO PENA, 3745, nan, SERRA, Belo Horizonte, Minas Gerais, Brasil;AVE AFONSO PENA, 3745, SERRA, Belo Horizonte, Minas Gerais, Brasil;SORITAL COMERCIO DE ALIMENTOS LTDA;;;08-05-1992;SIM;-1
RUA DOS HANGARES, 11, nan, AEROPORTO, Belo Horizonte, Minas Gerais, Brasil;RUA DOS HANGARES, 11, AEROPORTO, Belo Horizonte, Minas Gerais, Brasil;HANGAR GOURMET;;;01-08-2002;SIM;-1
RUA PROFESSORA GABRIELA VARELA, 211, LOJA, FLORAMAR, Belo Horizonte, Minas Gerais, Brasil;RUA PROFESSORA GABRIELA VARELA, 211, FLORAMAR, Belo Horizonte, Minas Gerais, Brasil;MARIO VIEIRA LEITE 00186194609;-19.835852;-43.9304549;08-02-2019;NÃO;-1
RUA ANA HILBERT, 11, nan, SANTA HELENA, Belo Horizonte, Minas Gerais, Brasil;RUA ANA HILBERT, 11, SANTA HELENA, Belo Horizonte, Minas Gerais, Brasil;WAMBERTO APARECIDO COSTA 41973267691;-19.9827692;-44.0112251;19-12-2018;NÃO;-1
AVE FLAVIO DOS SANTOS, 335, APT 101, FLORESTA, Belo Horizonte, Minas Gerais, Brasil;AVE FLAVIO DOS SANTOS, 335, FLORESTA, Belo Horizonte, Minas Gerais, Brasil;DRUMMOND PIZZA;;;14-01-2019;NÃO;-1
RUA ALOISIO DE AZEVEDO, 59, nan, SANTA MONICA, Belo Horizonte, Minas Gerais, Brasil;RUA ALOISIO DE AZEVEDO, 59, SANTA MONICA, Belo Horizonte, Minas Gerais, Brasil;TONINHO'S BAR E MERCEARIA;;;22-01-2019;NÃO;-1
RUA DO LEBLON, 8, nan, URCA, Belo Horizonte, Minas Gerais, Brasil;RUA DO LEBLON, 8, URCA, Belo Horizonte, Minas Gerais, Brasil;18.907.326 RAQUEL DIAS FAGUNDES;-19.8710626;-44.016332;24-01-2019;SIM;-1
RUA DOM VICOSO, 368, nan, PADRE EUSTAQUIO, Belo Horizonte, Minas Gerais, Brasil;RUA DOM VICOSO, 368, PADRE EUSTAQUIO, Belo Horizonte, Minas Gerais, Brasil;ANA LUISA MARZANO DOLABELLA 03280678650;-19.9224975;-43.9735965;05-07-2013;NÃO;-1
AVE BRIGADEIRO EDUARDO GOMES, 660, LOJA 03, DOM BOSCO, Belo Horizonte, Minas Gerais, Brasil;AVE BRIGADEIRO EDUARDO GOMES, 660, DOM BOSCO, Belo Horizonte, Minas Gerais, Brasil;SANDUBAO LANCHES;;;05-07-2013;NÃO;-1
RUA ANTONIO MARIANO DE ABREU, 495, LOJA A, PAULO VI, Belo Horizonte, Minas Gerais, Brasil;RUA ANTONIO MARIANO DE ABREU, 495, PAULO VI, Belo Horizonte, Minas Gerais, Brasil;SALVADOR FRANCISCO DOS SANTOS 04940186822;-19.8413562;-43.8934692;01-08-2013;NÃO;-1
RUA DOS OTONI, 710, nan, SANTA EFIGENIA, Belo Horizonte, Minas Gerais, Brasil;RUA DOS OTONI, 710, SANTA EFIGENIA, Belo Horizonte, Minas Gerais, Brasil;POMAR DO ACAI RESTAURANTE E LANCHONETE;-19.925328;-43.9289869;16-07-2013;SIM;-1
RUA DOUTOR CRISTIANO REZENDE, 2650, LOJA A, ARAGUAIA, Belo Horizonte, Minas Gerais, Brasil;RUA DOUTOR CRISTIANO REZENDE, 2650, ARAGUAIA, Belo Horizonte, Minas Gerais, Brasil;RESTAURANTE SABOR DE MINAS;-19.9931948;-44.0011274;02-08-2013;SIM;-1
RUA DO MARINHOS, 58, LOJA A, NOVA SUISSA, Belo Horizonte, Minas Gerais, Brasil;RUA DO MARINHOS, 58, NOVA SUISSA, Belo Horizonte, Minas Gerais, Brasil;MARIA DE FATIMA PEREIRA COUTO 76197336634;;;16-07-2013;NÃO;-1
AVE CRISTIANO MACHADO, 1950, LOJA: 46 A,, CIDADE NOVA, Belo Horizonte, Minas Gerais, Brasil;AVE CRISTIANO MACHADO, 1950, CIDADE NOVA, Belo Horizonte, Minas Gerais, Brasil;UM TREM NA CHAPA;;;16-07-2013;SIM;-1
RUA SERVIDAO UM, 45, nan, VALE DO JATOBA, Belo Horizonte, Minas Gerais, Brasil;RUA SERVIDAO UM, 45, VALE DO JATOBA, Belo Horizonte, Minas Gerais, Brasil;18.443.654 MARINA DANIELE DUQUE ANDRADE;;;08-07-2013;NÃO;-1
AVE ANTONIO ABRAHAO CARAM, 900, LOJA B, SAO JOSE, Belo Horizonte, Minas Gerais, Brasil;AVE ANTONIO ABRAHAO CARAM, 900, SAO JOSE, Belo Horizonte, Minas Gerais, Brasil;FARROUPILHA STEAK HOUSE LTDA;;;24-07-2013;SIM;-1
RUA ITAJUBA, 913, LOJA: 03,, FLORESTA, Belo Horizonte, Minas Gerais, Brasil;RUA ITAJUBA, 913, FLORESTA, Belo Horizonte, Minas Gerais, Brasil;RESTAURANTE MANGUEIRA;-19.9111217;-43.9295317;24-07-2013;NÃO;-1
RUA JULIO RODRIGUES DE MIRANDA, 140, nan, CONFISCO, Belo Horizonte, Minas Gerais, Brasil;RUA JULIO RODRIGUES DE MIRANDA, 140, CONFISCO, Belo Horizonte, Minas Gerais, Brasil;MARIA DOS ANJOS OLIVEIRA 81400721687;;;02-08-2013;NÃO;-1
RUA FERREIRA, 362, LOJA, EYMARD, Belo Horizonte, Minas Gerais, Brasil;RUA FERREIRA, 362, EYMARD, Belo Horizonte, Minas Gerais, Brasil;LUIZ EUSTAQUIO DA SILVA 61128368668;;;17-07-2013;NÃO;-1
RUA DEPUTADO CLAUDIO PINHEIRO DE LIMA, 390, LOJA 01, GLORIA, Belo Horizonte, Minas Gerais, Brasil;RUA DEPUTADO CLAUDIO PINHEIRO DE LIMA, 390, GLORIA, Belo Horizonte, Minas Gerais, Brasil;BAR DO MANOEL;-19.9051342;-44.0068782;08-07-2013;SIM;-1
RUA PONTA GROSSA, 36, LOJA 2, ARAGUAIA, Belo Horizonte, Minas Gerais, Brasil;RUA PONTA GROSSA, 36, ARAGUAIA, Belo Horizonte, Minas Gerais, Brasil;18.511.566 JOSE MAURICIO BEBIANO;-19.9857725;-43.9983065;18-07-2013;SIM;-1
RUA WALDOMIRO LOBO, 370, nan, GUARANI, Belo Horizonte, Minas Gerais, Brasil;RUA WALDOMIRO LOBO, 370, GUARANI, Belo Horizonte, Minas Gerais, Brasil;FRANGO DO ZE OMAR LTDA;-19.8463582;-43.9316727;18-07-2013;NÃO;-1
RUA DOMINGOS DE SOUZA BASTOS, 49, nan, MARILANDIA, Belo Horizonte, Minas Gerais, Brasil;RUA DOMINGOS DE SOUZA BASTOS, 49, MARILANDIA, Belo Horizonte, Minas Gerais, Brasil;JOSE LUIZ FERNANDES BARBOSA 79522343668;-19.9992732;-44.046713;18-07-2013;NÃO;-1
RUA CACATUA, 422, nan, FLAVIO MARQUES LISBOA, Belo Horizonte, Minas Gerais, Brasil;RUA CACATUA, 422, FLAVIO MARQUES LISBOA, Belo Horizonte, Minas Gerais, Brasil;DOMINGOS BONIFACIO DAS MERCES 48199850604;-19.9953939;-44.0011457;18-07-2013;NÃO;-1
AVE DO CONTORNO, 1550, LOJA: 01,, FLORESTA, Belo Horizonte, Minas Gerais, Brasil;AVE DO CONTORNO, 1550, FLORESTA, Belo Horizonte, Minas Gerais, Brasil;ODEON LANCHES;;;08-08-2013;NÃO;-1
RUA JOSE BENJAMIM DE CASTRO, 70, nan, CAMPO ALEGRE, Belo Horizonte, Minas Gerais, Brasil;RUA JOSE BENJAMIM DE CASTRO, 70, CAMPO ALEGRE, Belo Horizonte, Minas Gerais, Brasil;SANDRA MARIA DE MATOS 40169987191;-19.8326125;-43.9458751;08-08-2013;NÃO;-1
PCA RIO BRANCO, 207, LOJA A, LAGOINHA LEBLON, Belo Horizonte, Minas Gerais, Brasil;PCA RIO BRANCO, 207, LAGOINHA LEBLON, Belo Horizonte, Minas Gerais, Brasil;DALVA MELO DA SILVA 83621415653;;;10-07-2013;NÃO;-1
RUA DOS ALAMOS, 179, nan, PARQUE SAO JOSE, Belo Horizonte, Minas Gerais, Brasil;RUA DOS ALAMOS, 179, PARQUE SAO JOSE, Belo Horizonte, Minas Gerais, Brasil;FREDERICO PORTO BARBOSA 04584673675;-19.9609111;-43.977818;05-08-2013;NÃO;-1
RUA CAMBUQUIRA, 1495, nan, CARLOS PRATES, Belo Horizonte, Minas Gerais, Brasil;RUA CAMBUQUIRA, 1495, CARLOS PRATES, Belo Horizonte, Minas Gerais, Brasil;MARIA MINEIRA RESTAURANTE E LANCHONETE LTDA;-19.9119464;-43.9694533;19-07-2013;SIM;-1
RUA BARRETOS, 389, LOJA 01, MARIQUINHAS, Belo Horizonte, Minas Gerais, Brasil;RUA BARRETOS, 389, MARIQUINHAS, Belo Horizonte, Minas Gerais, Brasil;JOSE RICARDO ARAUJO LIMA 11111342865;-19.8133791;-43.9376796;19-07-2013;NÃO;-1
RUA GERALDO FERREIRA DE ABREU, 40, LETRA A, JARDIM GUANABARA, Belo Horizonte, Minas Gerais, Brasil;RUA GERALDO FERREIRA DE ABREU, 40, JARDIM GUANABARA, Belo Horizonte, Minas Gerais, Brasil;CLAUDIA REGINA DE CARVALHO 69878820610;-19.8248143;-43.9366693;10-07-2013;NÃO;-1
AVE JOAO ROLLA FILHO, 292, nan, DIAMANTE, Belo Horizonte, Minas Gerais, Brasil;AVE JOAO ROLLA FILHO, 292, DIAMANTE, Belo Horizonte, Minas Gerais, Brasil;CLAYTON MARCIO DE OLIVEIRA 03131150602;;;29-07-2013;SIM;-1
RUA PAPA HONORIO III, 385, nan, OURO MINAS, Belo Horizonte, Minas Gerais, Brasil;RUA PAPA HONORIO III, 385, OURO MINAS, Belo Horizonte, Minas Gerais, Brasil;MARTA APARECIDA VIANA DE ABREU 04431641696;-19.8482911;-43.9055871;06-08-2013;NÃO;-1
RUA BARAO DE COROMANDEL, 615, nan, SAO TOMAZ, Belo Horizonte, Minas Gerais, Brasil;RUA BARAO DE COROMANDEL, 615, SAO TOMAZ, Belo Horizonte, Minas Gerais, Brasil;FABRICIO CAIO ROMANO 06579629614;-19.8455525;-43.9518195;21-07-2013;NÃO;-1
RUA ITAQUERA, 1327, nan, GRACA, Belo Horizonte, Minas Gerais, Brasil;RUA ITAQUERA, 1327, GRACA, Belo Horizonte, Minas Gerais, Brasil;RENATO BATISTA DE SOUZA 76997200672;-19.9002131;-43.9315807;11-07-2013;NÃO;-1
AVE SENADOR LEVINDO COELHO, 4852, LOJA A, INDEPENDENCIA, Belo Horizonte, Minas Gerais, Brasil;AVE SENADOR LEVINDO COELHO, 4852, INDEPENDENCIA, Belo Horizonte, Minas Gerais, Brasil;PIZZARIA DO PRETO;;;29-07-2013;SIM;-1
RUA MARMORE, 787, LOJA, SANTA TEREZA, Belo Horizonte, Minas Gerais, Brasil;RUA MARMORE, 787, SANTA TEREZA, Belo Horizonte, Minas Gerais, Brasil;MOACIR JOSE DA COSTA 42033080110;-19.9162948;-43.9182816;29-07-2013;NÃO;-1
AVE MANOEL SALLES BARBOSA, 65, LOJA 03, CARDOSO, Belo Horizonte, Minas Gerais, Brasil;AVE MANOEL SALLES BARBOSA, 65, CARDOSO, Belo Horizonte, Minas Gerais, Brasil;JEF BAR;;;05-08-2013;NÃO;-1
RUA MARIANO PROCOPIO, 820, LOJA, JOAO PINHEIRO, Belo Horizonte, Minas Gerais, Brasil;RUA MARIANO PROCOPIO, 820, JOAO PINHEIRO, Belo Horizonte, Minas Gerais, Brasil;18.529.609 ANGELA LOPES CARDOSO COSTA;-19.9302285;-43.9980804;22-07-2013;SIM;-1
AVE JOAQUIM ABEL COELHO, 55, LOJA 01, MANTIQUEIRA, Belo Horizonte, Minas Gerais, Brasil;AVE JOAQUIM ABEL COELHO, 55, MANTIQUEIRA, Belo Horizonte, Minas Gerais, Brasil;RESTAURANTE E LANCHONETE MAOS DE MINAS;;;07-08-2013;NÃO;-1
AVE OLEGARIO MACIEL, 1276, LOJA 1, SANTO AGOSTINHO, Belo Horizonte, Minas Gerais, Brasil;AVE OLEGARIO MACIEL, 1276, SANTO AGOSTINHO, Belo Horizonte, Minas Gerais, Brasil;SAULO DOS SANTOS 02672135657;;;07-08-2013;NÃO;-1
RUA DAS CANARIAS, 651, nan, SANTA AMELIA, Belo Horizonte, Minas Gerais, Brasil;RUA DAS CANARIAS, 651, SANTA AMELIA, Belo Horizonte, Minas Gerais, Brasil;J'S FINE BURGER;-19.8426308;-43.9718635;12-07-2013;NÃO;-1
RUA FURQUIM WERNECK, 1304, nan, TUPI B, Belo Horizonte, Minas Gerais, Brasil;RUA FURQUIM WERNECK, 1304, TUPI B, Belo Horizonte, Minas Gerais, Brasil;HUDSON TADEU ZENATELI 00643762655;-19.839581;-43.9204788;23-07-2013;NÃO;-1
AVE SILVA LOBO, 1813, LOJA: 11 E 12,, GRAJAU, Belo Horizonte, Minas Gerais, Brasil;AVE SILVA LOBO, 1813, GRAJAU, Belo Horizonte, Minas Gerais, Brasil;CARECA ESPETINHOS;;;31-07-2013;SIM;-1
RUA VINHEDO, 60, nan, ITAIPU, Belo Horizonte, Minas Gerais, Brasil;RUA VINHEDO, 60, ITAIPU, Belo Horizonte, Minas Gerais, Brasil;ADEMAR LUIZ MOREIRA DE OLIVEIRA 00544859677;-19.9910275;-44.0511963;31-07-2013;NÃO;-1
AVE JEQUITINHONHA, 53, nan, ALTO VERA CRUZ, Belo Horizonte, Minas Gerais, Brasil;AVE JEQUITINHONHA, 53, ALTO VERA CRUZ, Belo Horizonte, Minas Gerais, Brasil;SILVIA VILACA DE CASTRO MARCELINO 00495622664;;;12-07-2013;NÃO;-1
RUA TRES PONTAS, 722, LOJA 01, CARLOS PRATES, Belo Horizonte, Minas Gerais, Brasil;RUA TRES PONTAS, 722, CARLOS PRATES, Belo Horizonte, Minas Gerais, Brasil;LM BAR E LANCHONETE LTDA;-19.9092658;-43.9582217;07-08-2013;SIM;-1
RUA OTAVIANO NEVES, 165, nan, OURO PRETO, Belo Horizonte, Minas Gerais, Brasil;RUA OTAVIANO NEVES, 165, OURO PRETO, Belo Horizonte, Minas Gerais, Brasil;18.484.119 ROSANGELA VALERIO;-19.8832465;-43.9857049;25-06-2024;NÃO;-1
RUA IZABEL GLANSMAN, 79, nan, MONTE AZUL, Belo Horizonte, Minas Gerais, Brasil;RUA IZABEL GLANSMAN, 79, MONTE AZUL, Belo Horizonte, Minas Gerais, Brasil;ELIZABETH FATIMA DA CRUZ FERREIRA 64197557604;-19.8165682;-43.8908225;01-08-2013;NÃO;-1
AVE SILVA LOBO, 1773, LOJA 02, GRAJAU, Belo Horizonte, Minas Gerais, Brasil;AVE SILVA LOBO, 1773, GRAJAU, Belo Horizonte, Minas Gerais, Brasil;SUSHI UP SILVA LOBO;;;18-06-2013;SIM;-1
RUA DOS COMANCHES, 717, nan, UNIVERSO, Belo Horizonte, Minas Gerais, Brasil;RUA DOS COMANCHES, 717, UNIVERSO, Belo Horizonte, Minas Gerais, Brasil;SEBASTIAO FERREIRA DOS SANTOS 39203786600;-19.8302728;-43.9815872;28-06-2013;NÃO;-1
RUA TRES MARIAS, 145, nan, MIRAMAR, Belo Horizonte, Minas Gerais, Brasil;RUA TRES MARIAS, 145, MIRAMAR, Belo Horizonte, Minas Gerais, Brasil;CLAUDIA REGINA MOREIRA ANTUNES 03282024606;-19.994718;-44.0126781;25-05-2013;NÃO;-1
RUA LAMIM, 19, LOJA, CASA BRANCA, Belo Horizonte, Minas Gerais, Brasil;RUA LAMIM, 19, CASA BRANCA, Belo Horizonte, Minas Gerais, Brasil;MARCO AURELIO DA SILVA MATOS 19861834672;-19.9013002;-43.8873601;17-06-2013;NÃO;-1
AVE BRASIL, 1582, LETRA A, BOA VIAGEM, Belo Horizonte, Minas Gerais, Brasil;AVE BRASIL, 1582, BOA VIAGEM, Belo Horizonte, Minas Gerais, Brasil;EUGENIO RODRIGUES MUCUTA 46532218634;;;01-07-2013;NÃO;-1
RUA CIRILO GASPAR DE ARAUJO, 280, nan, APARECIDA SETIMA SECAO, Belo Horizonte, Minas Gerais, Brasil;RUA CIRILO GASPAR DE ARAUJO, 280, APARECIDA SETIMA SECAO, Belo Horizonte, Minas Gerais, Brasil;18.426.043 ARLINDA APARECIDA ABREU;-19.8936437;-43.960116;04-07-2013;NÃO;-1
RUA PADRE EUSTAQUIO, 214, nan, CARLOS PRATES, Belo Horizonte, Minas Gerais, Brasil;RUA PADRE EUSTAQUIO, 214, CARLOS PRATES, Belo Horizonte, Minas Gerais, Brasil;JOSE ROBERTO FONTES DE MIRANDA 75101874604;-19.9139221;-43.9695155;08-06-2013;NÃO;-1
RUA PAULO TIMOTEO NASCIMENTO, 98, LOJA, SANTA CRUZ, Belo Horizonte, Minas Gerais, Brasil;RUA PAULO TIMOTEO NASCIMENTO, 98, SANTA CRUZ, Belo Horizonte, Minas Gerais, Brasil;LEILA APARECIDA SILVANO 35472472687;-19.879677;-43.9444214;19-06-2013;NÃO;-1
AVE ANTONIO ABRAHAO CARAM, 970, LOJA: 01,, SAO JOSE, Belo Horizonte, Minas Gerais, Brasil;AVE ANTONIO ABRAHAO CARAM, 970, SAO JOSE, Belo Horizonte, Minas Gerais, Brasil;CAMPOS E SANTOS LANCHONETE LTDA;;;10-06-2013;SIM;-1
RUA DA PATAGONIA, 644, LOJA:02,, SION, Belo Horizonte, Minas Gerais, Brasil;RUA DA PATAGONIA, 644, SION, Belo Horizonte, Minas Gerais, Brasil;COM BEBIDAS ALIMENTOS E UTENSILIOS LTDA;-19.958225;-43.9377727;06-09-2022;SIM;-1
AVE NENEM LARA ROCHA, 299, ANDAR 2, SERRA VERDE, Belo Horizonte, Minas Gerais, Brasil;AVE NENEM LARA ROCHA, 299, SERRA VERDE, Belo Horizonte, Minas Gerais, Brasil;BROTHERS PUB BEER;;;29-05-2013;NÃO;-1
RUA SANTA CEIA, 61, LOJA, JARDIM SAO JOSE, Belo Horizonte, Minas Gerais, Brasil;RUA SANTA CEIA, 61, JARDIM SAO JOSE, Belo Horizonte, Minas Gerais, Brasil;IVANI MARIA FIRMO 03373534682;-19.9026157;-43.9942378;31-05-2013;NÃO;-1
RUA MARILIA DE DIRCEU, 161, nan, LOURDES, Belo Horizonte, Minas Gerais, Brasil;RUA MARILIA DE DIRCEU, 161, LOURDES, Belo Horizonte, Minas Gerais, Brasil;BALAIO;-19.9341541;-43.9461057;03-07-2013;SIM;-1
RUA ALIRIO ELIAS FERREIRA, 65, LETRA A, UNIAO, Belo Horizonte, Minas Gerais, Brasil;RUA ALIRIO ELIAS FERREIRA, 65, UNIAO, Belo Horizonte, Minas Gerais, Brasil;MARLENE BARBOSA DOS SANTOS FONSECA 42616875691;-19.8835884;-43.9231067;03-07-2013;NÃO;-1
RUA NELSON DARIO, 280, CASA, NOVA CACHOEIRINHA, Belo Horizonte, Minas Gerais, Brasil;RUA NELSON DARIO, 280, NOVA CACHOEIRINHA, Belo Horizonte, Minas Gerais, Brasil;ANTONIO CARLOS CALDEIRA 48896543649;-19.8870654;-43.9567113;12-06-2013;NÃO;-1
RUA JOSE FELIX MARTINS, 925, LOJA, MANTIQUEIRA, Belo Horizonte, Minas Gerais, Brasil;RUA JOSE FELIX MARTINS, 925, MANTIQUEIRA, Belo Horizonte, Minas Gerais, Brasil;18.351.928 ROSILANE LOPES DA ROSA PEDROSO VAILAM;-19.7937604;-43.9854096;24-06-2013;SIM;-1
RUA CESAR DACORSO FILHO, 182, nan, VALE DO JATOBA, Belo Horizonte, Minas Gerais, Brasil;RUA CESAR DACORSO FILHO, 182, VALE DO JATOBA, Belo Horizonte, Minas Gerais, Brasil;BAR IRMAOS LOBO LTDA;;;04-07-2013;NÃO;-1
RUA MARIA DE LURDES DE PINHO, 65, nan, JARDIM VITORIA, Belo Horizonte, Minas Gerais, Brasil;RUA MARIA DE LURDES DE PINHO, 65, JARDIM VITORIA, Belo Horizonte, Minas Gerais, Brasil;ALEX SANDRO BERTOLDO GOMES 06678690699;-19.8519148;-43.8791042;24-06-2013;NÃO;-1
RUA SERRA NEGRA, 1876, CASA, NOVA ESPERANCA, Belo Horizonte, Minas Gerais, Brasil;RUA SERRA NEGRA, 1876, NOVA ESPERANCA, Belo Horizonte, Minas Gerais, Brasil;JONAS CAIQUE ALVES DA SILVA 11684229650;-19.9014323;-43.9538009;24-06-2013;NÃO;-1
AVE CORONEL JOSE DIAS BICALHO, 1221, LOJA, SAO JOSE, Belo Horizonte, Minas Gerais, Brasil;AVE CORONEL JOSE DIAS BICALHO, 1221, SAO JOSE, Belo Horizonte, Minas Gerais, Brasil;FERNANDA CATARINA SANTOS ARAUJO 01306968623;;;02-07-2013;NÃO;-1
RUA DA BAHIA, 1148, LOJA 7 LOJA 10, CENTRO, Belo Horizonte, Minas Gerais, Brasil;RUA DA BAHIA, 1148, CENTRO, Belo Horizonte, Minas Gerais, Brasil;XAMBAR;-19.9250301;-43.93764;04-06-2013;SIM;-1
RUA PADRE BELCHIOR, 227, LOJA: A,, CENTRO, Belo Horizonte, Minas Gerais, Brasil;RUA PADRE BELCHIOR, 227, CENTRO, Belo Horizonte, Minas Gerais, Brasil;A ODORICO DOS SANTOS;-19.923008;-43.9416943;12-06-2013;NÃO;-1
AVE OTACILIO NEGRAO DE LIMA, 1624, nan, SAO LUIZ, Belo Horizonte, Minas Gerais, Brasil;AVE OTACILIO NEGRAO DE LIMA, 1624, SAO LUIZ, Belo Horizonte, Minas Gerais, Brasil;SAATORE RISTORANTE;;;24-06-2013;SIM;-1
RUA BARRETOS, 344, CASA, MARIQUINHAS, Belo Horizonte, Minas Gerais, Brasil;RUA BARRETOS, 344, MARIQUINHAS, Belo Horizonte, Minas Gerais, Brasil;SIRLENE FERREIRA PIRES 10788460650;-19.8133791;-43.9376796;03-07-2013;NÃO;-1
RUA TEREZINHA LOPES DE AZEVEDO, 115, nan, PLANALTO, Belo Horizonte, Minas Gerais, Brasil;RUA TEREZINHA LOPES DE AZEVEDO, 115, PLANALTO, Belo Horizonte, Minas Gerais, Brasil;JOAQUIM VIEIRA DA SILVA 70363692649;-19.8326558;-43.9416415;25-06-2013;NÃO;-1
RUA CONGONHAS, 895, nan, SANTO ANTONIO, Belo Horizonte, Minas Gerais, Brasil;RUA CONGONHAS, 895, SANTO ANTONIO, Belo Horizonte, Minas Gerais, Brasil;PIZZARIA DELLA FIORE;-19.943448;-43.9409148;25-06-2013;NÃO;-1
RUA CLARINDO ULISSES DOS SANTOS, 26, CASA A, MANTIQUEIRA, Belo Horizonte, Minas Gerais, Brasil;RUA CLARINDO ULISSES DOS SANTOS, 26, MANTIQUEIRA, Belo Horizonte, Minas Gerais, Brasil;JOSE MARCO FERREIRA DOS SANTOS 04022322675;-19.7853027;-43.9842326;22-05-2013;NÃO;-1
RUA JOSE GOMES, 202, nan, SANTA TEREZINHA, Belo Horizonte, Minas Gerais, Brasil;RUA JOSE GOMES, 202, SANTA TEREZINHA, Belo Horizonte, Minas Gerais, Brasil;MARIA DA CONCEICAO ALMEIDA 99654253615;-19.8733978;-44.0101063;13-06-2013;NÃO;-1
RUA PARAIBA, 941, nan, SAVASSI, Belo Horizonte, Minas Gerais, Brasil;RUA PARAIBA, 941, SAVASSI, Belo Horizonte, Minas Gerais, Brasil;CASA AMORA;-19.9384716;-43.9342575;25-06-2013;SIM;-1
PCA RIO BRANCO, 100, LOJA 209-210 B, CENTRO, Belo Horizonte, Minas Gerais, Brasil;PCA RIO BRANCO, 100, CENTRO, Belo Horizonte, Minas Gerais, Brasil;MF GAZIRE ALIMENTOS LTDA;;;23-05-2013;SIM;-1
AVE PORTUGAL, 555, nan, JARDIM ATLANTICO, Belo Horizonte, Minas Gerais, Brasil;AVE PORTUGAL, 555, JARDIM ATLANTICO, Belo Horizonte, Minas Gerais, Brasil;BAMBARE BAR E RESTAURANTE;;;14-06-2013;SIM;-1
RUA FRANCISCO SPINO, 109, nan, SAO BERNARDO, Belo Horizonte, Minas Gerais, Brasil;RUA FRANCISCO SPINO, 109, SAO BERNARDO, Belo Horizonte, Minas Gerais, Brasil;LAUDONIDIO ALMEIDA E SILVA 20443323615;-19.8465802;-43.9432141;23-05-2013;NÃO;-1
RUA KEPLER, 441, LOJA 15B LOJA 16 LOJA 19 LOJA 20 LOJA 21 LOJA 22, SANTA LUCIA, Belo Horizonte, Minas Gerais, Brasil;RUA KEPLER, 441, SANTA LUCIA, Belo Horizonte, Minas Gerais, Brasil;OS PIRATAS PIZZARIA;-19.9636285;-43.9492036;06-05-2013;NÃO;-1
AVE GUARAPARI, 176, nan, SANTA AMELIA, Belo Horizonte, Minas Gerais, Brasil;AVE GUARAPARI, 176, SANTA AMELIA, Belo Horizonte, Minas Gerais, Brasil;JAPAN COZINHA ORIENTAL LTDA;;;06-06-2013;SIM;-1
AVE AMAZONAS, 2515, nan, SANTO AGOSTINHO, Belo Horizonte, Minas Gerais, Brasil;AVE AMAZONAS, 2515, SANTO AGOSTINHO, Belo Horizonte, Minas Gerais, Brasil;RESTAURANTE PISTACHE II LTDA;;;27-06-2013;NÃO;-1
RUA SERGIPE, 146, nan, BOA VIAGEM, Belo Horizonte, Minas Gerais, Brasil;RUA SERGIPE, 146, BOA VIAGEM, Belo Horizonte, Minas Gerais, Brasil;VG RESTAURANTE LTDA;-19.9313643;-43.9365479;06-06-2013;SIM;-1
AVE DOM PEDRO II, 2222, LOJA A, CAICARAS, Belo Horizonte, Minas Gerais, Brasil;AVE DOM PEDRO II, 2222, CAICARAS, Belo Horizonte, Minas Gerais, Brasil;54.353.691 WALLYSON DE FREITAS BRAGA;;;19-03-2025;NÃO;-1
RUA MEDEIA, 484, nan, MINASCAIXA, Belo Horizonte, Minas Gerais, Brasil;RUA MEDEIA, 484, MINASCAIXA, Belo Horizonte, Minas Gerais, Brasil;60.053.978 OZORIO SOARES DA ROCHA;-19.8073087;-43.9615775;24-03-2025;NÃO;-1
RUA MEXICO, 151, LOJA, COPACABANA, Belo Horizonte, Minas Gerais, Brasil;RUA MEXICO, 151, COPACABANA, Belo Horizonte, Minas Gerais, Brasil;60.072.185 FERNANDO JABULIER BRAZ;-19.8331209;-43.9934277;25-03-2025;NÃO;-1
RUA GERALDA DINIZ MIRANDA, 26, APT 02, MARIA GORETTI, Belo Horizonte, Minas Gerais, Brasil;RUA GERALDA DINIZ MIRANDA, 26, MARIA GORETTI, Belo Horizonte, Minas Gerais, Brasil;60.072.201 LEONARDO ANDRADE COUTO;-19.8652063;-43.9080815;25-03-2025;NÃO;-1
RUA BOLIVAR MINEIRO, 38, nan, DONA CLARA, Belo Horizonte, Minas Gerais, Brasil;RUA BOLIVAR MINEIRO, 38, DONA CLARA, Belo Horizonte, Minas Gerais, Brasil;DONA MARIA RESTAURANTE, PIZZARIA E HAMBURGUERIA;-19.8599232;-43.9436798;27-03-2025;SIM;-1
AVE AUGUSTO DE LIMA, 1540, nan, BARRO PRETO, Belo Horizonte, Minas Gerais, Brasil;AVE AUGUSTO DE LIMA, 1540, BARRO PRETO, Belo Horizonte, Minas Gerais, Brasil;CELEIRO GRILL;;;28-03-2025;NÃO;-1
RUA DOS VETERINARIOS, 411, LETRA A,LOJA, ALIPIO DE MELO, Belo Horizonte, Minas Gerais, Brasil;RUA DOS VETERINARIOS, 411, ALIPIO DE MELO, Belo Horizonte, Minas Gerais, Brasil;60.017.627 KLISMAN PESSOA PEREIRA;-19.8903648;-44.0062029;21-03-2025;NÃO;-1
RUA DAS CLARINETAS, 65, nan, CONJUNTO CALIFORNIA I, Belo Horizonte, Minas Gerais, Brasil;RUA DAS CLARINETAS, 65, CONJUNTO CALIFORNIA I, Belo Horizonte, Minas Gerais, Brasil;ESPETINHO E ACAI DO PAI;-19.9243867;-44.006447;24-08-2021;NÃO;-1
RUA MANTENA, 265, nan, OURO PRETO, Belo Horizonte, Minas Gerais, Brasil;RUA MANTENA, 265, OURO PRETO, Belo Horizonte, Minas Gerais, Brasil;MIX BEEF ESPETERIA;-19.8709492;-43.9821976;24-08-2021;NÃO;-1
RUA ITAPECERICA, 207, LOJA, LAGOINHA, Belo Horizonte, Minas Gerais, Brasil;RUA ITAPECERICA, 207, LAGOINHA, Belo Horizonte, Minas Gerais, Brasil;BAR DO QUEROS;-19.9085242;-43.9441403;04-08-2021;SIM;-1
AVE ANTONIO HENRIQUE ALVES, 551, CONJ FUNDOS, CAICARA ADELAIDE, Belo Horizonte, Minas Gerais, Brasil;AVE ANTONIO HENRIQUE ALVES, 551, CAICARA ADELAIDE, Belo Horizonte, Minas Gerais, Brasil;CANTINHO DA PRODUCAO;;;06-08-2021;NÃO;-1
RUA CAMPO FORMOSO, 531, nan, SALGADO FILHO, Belo Horizonte, Minas Gerais, Brasil;RUA CAMPO FORMOSO, 531, SALGADO FILHO, Belo Horizonte, Minas Gerais, Brasil;BAR E LANCHONETE ALTAS HORAS;-19.9469299;-43.9857617;16-08-2021;NÃO;-1
RUA DOUTOR CRISTIANO REZENDE, 65, nan, BAIRRO NOVO DAS INDUSTRIAS, Belo Horizonte, Minas Gerais, Brasil;RUA DOUTOR CRISTIANO REZENDE, 65, BAIRRO NOVO DAS INDUSTRIAS, Belo Horizonte, Minas Gerais, Brasil;RESTAURANTE E PIZZARIA MOURAO;-19.9704056;-43.9921381;18-08-2021;NÃO;-1
RUA MATO GROSSO, 631, nan, BARRO PRETO, Belo Horizonte, Minas Gerais, Brasil;RUA MATO GROSSO, 631, BARRO PRETO, Belo Horizonte, Minas Gerais, Brasil;RESTAURANTE COZINHA DO SABOR;-19.9237781;-43.9481474;20-08-2021;SIM;-1
RUA THEODORO BONFIM, 140, nan, TAQUARIL, Belo Horizonte, Minas Gerais, Brasil;RUA THEODORO BONFIM, 140, TAQUARIL, Belo Horizonte, Minas Gerais, Brasil;RAFAEL DE PAULA OLIVEIRA 07514064656;-19.9158205;-43.8836548;03-08-2021;NÃO;-1
RUA MARIA BORBOLETA, 1057, CONJ, MANTIQUEIRA, Belo Horizonte, Minas Gerais, Brasil;RUA MARIA BORBOLETA, 1057, MANTIQUEIRA, Belo Horizonte, Minas Gerais, Brasil;PONTO CERTO ESTRELA;-19.7976514;-43.9765281;05-08-2021;NÃO;-1
RUA SAO BERNARDO DO CAMPO, 333, nan, PIRATININGA, Belo Horizonte, Minas Gerais, Brasil;RUA SAO BERNARDO DO CAMPO, 333, PIRATININGA, Belo Horizonte, Minas Gerais, Brasil;JULIO CESAR DIAS ALVES 10061354643;-19.8063508;-43.9837701;06-08-2021;NÃO;-1
AVE DOM PEDRO II, 2573, nan, CARLOS PRATES, Belo Horizonte, Minas Gerais, Brasil;AVE DOM PEDRO II, 2573, CARLOS PRATES, Belo Horizonte, Minas Gerais, Brasil;M.D.E - ALIMENTACAO;;;06-08-2021;NÃO;-1
RUA JONAS LINS DE OLIVEIRA, 96, LOJA 10, DONA CLARA, Belo Horizonte, Minas Gerais, Brasil;RUA JONAS LINS DE OLIVEIRA, 96, DONA CLARA, Belo Horizonte, Minas Gerais, Brasil;41.428.545 GLAUCIENE REGINA ALVES FERREIRA;;;10-08-2021;NÃO;-1
RUA RADIALISTA MACLEREVSKI, 220, nan, CEU AZUL, Belo Horizonte, Minas Gerais, Brasil;RUA RADIALISTA MACLEREVSKI, 220, CEU AZUL, Belo Horizonte, Minas Gerais, Brasil;BAR DO ABEL;-19.8158746;-44.0048814;10-08-2021;NÃO;-1
AVE CRISTOVAO COLOMBO, 282, LOJA 2, SAVASSI, Belo Horizonte, Minas Gerais, Brasil;AVE CRISTOVAO COLOMBO, 282, SAVASSI, Belo Horizonte, Minas Gerais, Brasil;SAVA PUB;;;20-08-2021;SIM;-1
ROD ANEL RODOVIARIO CELSO MELLO AZEVEDO, 66, nan, BELVEDERE, Belo Horizonte, Minas Gerais, Brasil;ROD ANEL RODOVIARIO CELSO MELLO AZEVEDO, 66, BELVEDERE, Belo Horizonte, Minas Gerais, Brasil;OUTLAND SOCIEDADE EMPRESARIA LTDA;;;25-08-2021;SIM;-1
AVE AMINTAS JACQUES DE MORAES, 1150, nan, COQUEIROS, Belo Horizonte, Minas Gerais, Brasil;AVE AMINTAS JACQUES DE MORAES, 1150, COQUEIROS, Belo Horizonte, Minas Gerais, Brasil;LU LANCHES;;;26-08-2021;NÃO;-1
RUA JOAO DE DEUS MATOS, 12, nan, IPIRANGA, Belo Horizonte, Minas Gerais, Brasil;RUA JOAO DE DEUS MATOS, 12, IPIRANGA, Belo Horizonte, Minas Gerais, Brasil;RESTAURANTE EUROVILE;-19.8847189;-43.9360708;28-08-2021;NÃO;-1
RUA DIABASE, 200, nan, PRADO, Belo Horizonte, Minas Gerais, Brasil;RUA DIABASE, 200, PRADO, Belo Horizonte, Minas Gerais, Brasil;RESTAURANTE VARIEDADES;-19.9207425;-43.9613139;02-08-2021;SIM;-1
RUA ALBERTO CINTRA, 32, LOJA 05, UNIAO, Belo Horizonte, Minas Gerais, Brasil;RUA ALBERTO CINTRA, 32, UNIAO, Belo Horizonte, Minas Gerais, Brasil;DB CIDADE NOVA;-19.8809841;-43.9283326;02-08-2021;SIM;-1
RUA CORONEL ANTONIO PEREIRA DE MATOS, 352, nan, LINDEIA, Belo Horizonte, Minas Gerais, Brasil;RUA CORONEL ANTONIO PEREIRA DE MATOS, 352, LINDEIA, Belo Horizonte, Minas Gerais, Brasil;ROTA 22 PUB BAR BILHAR;-19.9842779;-44.0529972;03-08-2021;SIM;-1
RUA PIAUI, 1594, nan, FUNCIONARIOS, Belo Horizonte, Minas Gerais, Brasil;RUA PIAUI, 1594, FUNCIONARIOS, Belo Horizonte, Minas Gerais, Brasil;SUSHIMEIYO;-19.9358597;-43.9279865;03-08-2021;NÃO;-1
RUA EXPEDICIONARIO PAULO DE SOUZA, 180, LOJA:01,, URCA, Belo Horizonte, Minas Gerais, Brasil;RUA EXPEDICIONARIO PAULO DE SOUZA, 180, URCA, Belo Horizonte, Minas Gerais, Brasil;BAR DO AILTON LTDA;-19.8709219;-44.0145578;05-08-2021;NÃO;-1
RUA FLAVIA ROBERTA DE AQUINO, 70, nan, MARIA GORETTI, Belo Horizonte, Minas Gerais, Brasil;RUA FLAVIA ROBERTA DE AQUINO, 70, MARIA GORETTI, Belo Horizonte, Minas Gerais, Brasil;BAR DO NO;-19.8655692;-43.9069812;10-08-2021;SIM;-1
RUA JUDITH BINATTI, 53, nan, LIBERDADE, Belo Horizonte, Minas Gerais, Brasil;RUA JUDITH BINATTI, 53, LIBERDADE, Belo Horizonte, Minas Gerais, Brasil;PEDRO HENRIQUE DURAES DE SOUZA;-19.8619829;-43.9546774;11-08-2021;SIM;-1
RUA BENJAMIM QUADROS, 266, nan, PARAISO, Belo Horizonte, Minas Gerais, Brasil;RUA BENJAMIM QUADROS, 266, PARAISO, Belo Horizonte, Minas Gerais, Brasil;CIA DO SUSHI BH;;;13-08-2021;NÃO;-1
RUA ESTELA BORGES NORATO, 301, CASA A, BAIRRO DAS INDUSTRIAS I, Belo Horizonte, Minas Gerais, Brasil;RUA ESTELA BORGES NORATO, 301, BAIRRO DAS INDUSTRIAS I, Belo Horizonte, Minas Gerais, Brasil;EDIR APARECIDA SILVA DOS SANTOS 94263663691;;;18-08-2021;NÃO;-1
RUA FELIPE DE MELO, 47, LOJA, UNIAO, Belo Horizonte, Minas Gerais, Brasil;RUA FELIPE DE MELO, 47, UNIAO, Belo Horizonte, Minas Gerais, Brasil;MASSAS E SABORES GOURMETS;-19.8785258;-43.927568;23-08-2021;NÃO;-1
RUA ITAPECERICA, 900, LOJA A, LAGOINHA, Belo Horizonte, Minas Gerais, Brasil;RUA ITAPECERICA, 900, LAGOINHA, Belo Horizonte, Minas Gerais, Brasil;BAR DO WILLIAN;-19.9085242;-43.9441403;23-08-2021;SIM;-1
RUA SERENATA, 116, nan, SANTANA DO CAFEZAL, Belo Horizonte, Minas Gerais, Brasil;RUA SERENATA, 116, SANTANA DO CAFEZAL, Belo Horizonte, Minas Gerais, Brasil;UAI PIZZA;-19.9356489;-43.9102774;25-08-2021;NÃO;-1
RUA DO IPE ENCANTADO, 210, nan, INDEPENDENCIA, Belo Horizonte, Minas Gerais, Brasil;RUA DO IPE ENCANTADO, 210, INDEPENDENCIA, Belo Horizonte, Minas Gerais, Brasil;BAR DO ZIZINHO;;;28-08-2021;NÃO;-1
RUA CENTRAL, 76, nan, COPACABANA, Belo Horizonte, Minas Gerais, Brasil;RUA CENTRAL, 76, COPACABANA, Belo Horizonte, Minas Gerais, Brasil;EXPRESSO BRUNO;-19.8368144;-43.9874318;03-08-2021;SIM;-1
RUA NELIA, 5, nan, SAO TOMAZ, Belo Horizonte, Minas Gerais, Brasil;RUA NELIA, 5, SAO TOMAZ, Belo Horizonte, Minas Gerais, Brasil;BAR E RESTAURANTE DA FAMILIA;-19.8427636;-43.9507268;07-08-2021;NÃO;-1
RUA PIUM I, 685, nan, ANCHIETA, Belo Horizonte, Minas Gerais, Brasil;RUA PIUM I, 685, ANCHIETA, Belo Horizonte, Minas Gerais, Brasil;MS BAR, RESTAURANTE E DISTRIBUIDORA LTDA;-19.9538539;-43.9291343;10-08-2021;SIM;-1
RUA DOUTOR ALEXANDRE DRUMOND, 117, nan, INDEPENDENCIA, Belo Horizonte, Minas Gerais, Brasil;RUA DOUTOR ALEXANDRE DRUMOND, 117, INDEPENDENCIA, Belo Horizonte, Minas Gerais, Brasil;NOSTALGICOS BURGUER;-20.0156673;-44.025996;12-08-2021;NÃO;-1
AVE PORTUGAL, 2138, LETRA A, JARDIM ATLANTICO, Belo Horizonte, Minas Gerais, Brasil;AVE PORTUGAL, 2138, JARDIM ATLANTICO, Belo Horizonte, Minas Gerais, Brasil;ILHA DO CAMALEAO;;;13-08-2021;SIM;-1
RUA JUVENTUDE, 368, CONJ, CEU AZUL, Belo Horizonte, Minas Gerais, Brasil;RUA JUVENTUDE, 368, CEU AZUL, Belo Horizonte, Minas Gerais, Brasil;BURGUER LANCHES;-19.8211138;-43.9983931;13-08-2021;NÃO;-1
RUA DAS CANOAS, 220, APT 202, BETANIA, Belo Horizonte, Minas Gerais, Brasil;RUA DAS CANOAS, 220, BETANIA, Belo Horizonte, Minas Gerais, Brasil;UIARA LOBATO MACEDO;-19.9587305;-43.9955107;20-08-2021;NÃO;-1
RUA TIZIU, 226, LOJA 01, GOIANIA, Belo Horizonte, Minas Gerais, Brasil;RUA TIZIU, 226, GOIANIA, Belo Horizonte, Minas Gerais, Brasil;ESPETINHO DO BOI;-19.8677692;-43.8988818;23-08-2021;SIM;-1
RUA RIO CLARO, 180, LOJA 1, PRADO, Belo Horizonte, Minas Gerais, Brasil;RUA RIO CLARO, 180, PRADO, Belo Horizonte, Minas Gerais, Brasil;KEITY SANTOS;-19.9245643;-43.9619318;31-08-2021;NÃO;-1
RUA CARLOS ESTEVAO, 112, nan, TUPI A, Belo Horizonte, Minas Gerais, Brasil;RUA CARLOS ESTEVAO, 112, TUPI A, Belo Horizonte, Minas Gerais, Brasil;LOUCOS POR LANCHES;;;31-08-2021;NÃO;-1
BEC J, 50, CASA, VILA FORMOSA, Belo Horizonte, Minas Gerais, Brasil;BEC J, 50, VILA FORMOSA, Belo Horizonte, Minas Gerais, Brasil;PIZZAS & LINGUICAS & FRANGOS DA ROCA;;;01-09-2021;NÃO;-1
RUA ARAUJO VIANA, 101, nan, SALGADO FILHO, Belo Horizonte, Minas Gerais, Brasil;RUA ARAUJO VIANA, 101, SALGADO FILHO, Belo Horizonte, Minas Gerais, Brasil;ZUCHK DELIVERY;-19.9390691;-43.9839006;01-09-2021;SIM;-1
RUA SILVA XAVIER, 123, CASA, JARDIM LEBLON, Belo Horizonte, Minas Gerais, Brasil;RUA SILVA XAVIER, 123, JARDIM LEBLON, Belo Horizonte, Minas Gerais, Brasil;CANTINA DO BRUNIM;-19.8268443;-43.9866846;07-08-2021;NÃO;-1
RUA SOARES DE ARAUJO, 23, nan, SANTA CRUZ, Belo Horizonte, Minas Gerais, Brasil;RUA SOARES DE ARAUJO, 23, SANTA CRUZ, Belo Horizonte, Minas Gerais, Brasil;STUDY LA FIESTA BUFFET;-19.8782667;-43.9357789;12-08-2021;NÃO;-1
AVE LEONTINO FRANCISCO ALVES, 275, LOJA:A,, SERRA VERDE, Belo Horizonte, Minas Gerais, Brasil;AVE LEONTINO FRANCISCO ALVES, 275, SERRA VERDE, Belo Horizonte, Minas Gerais, Brasil;H.O.GOMES;;;12-08-2021;NÃO;-1
RUA EDIVALDO JARDIM, 247, nan, JARDIM DOS COMERCIARIOS, Belo Horizonte, Minas Gerais, Brasil;RUA EDIVALDO JARDIM, 247, JARDIM DOS COMERCIARIOS, Belo Horizonte, Minas Gerais, Brasil;DISTRIBUIDORA JR;-19.7941947;-43.9642027;13-08-2021;NÃO;-1
BEC DOZE DE OUTUBRO, 12, CONJ, VILA SANTA MONICA, Belo Horizonte, Minas Gerais, Brasil;BEC DOZE DE OUTUBRO, 12, VILA SANTA MONICA, Belo Horizonte, Minas Gerais, Brasil;DO BECO;;;13-08-2021;NÃO;-1
RUA TEIXEIRA MAGALHAES, 33, nan, FLORESTA, Belo Horizonte, Minas Gerais, Brasil;RUA TEIXEIRA MAGALHAES, 33, FLORESTA, Belo Horizonte, Minas Gerais, Brasil;365 BURGUER;-19.914427;-43.9294294;13-08-2021;NÃO;-1
RUA ANTONIO ALEIXO, 20, nan, LOURDES, Belo Horizonte, Minas Gerais, Brasil;RUA ANTONIO ALEIXO, 20, LOURDES, Belo Horizonte, Minas Gerais, Brasil;OR3 HOTEL E TURISMO BH LTDA.;-19.9328458;-43.9464671;11-04-2024;SIM;-1
RUA EMBAIXADOR AFRANIO DE MELO FRANCO, 133, CONJ, VILA AEROPORTO JARAGUA, Belo Horizonte, Minas Gerais, Brasil;RUA EMBAIXADOR AFRANIO DE MELO FRANCO, 133, VILA AEROPORTO JARAGUA, Belo Horizonte, Minas Gerais, Brasil;MM LANCHES;;;18-08-2021;NÃO;-1
RUA HEITOR A MONTALVAO, 233, nan, CONJUNTO SERRA VERDE, Belo Horizonte, Minas Gerais, Brasil;RUA HEITOR A MONTALVAO, 233, CONJUNTO SERRA VERDE, Belo Horizonte, Minas Gerais, Brasil;BAR DA VALERIA;;;20-08-2021;NÃO;-1
RUA ERE, 206, LOJA: 1, PRADO, Belo Horizonte, Minas Gerais, Brasil;RUA ERE, 206, PRADO, Belo Horizonte, Minas Gerais, Brasil;RESTAURANTE E LANCHONETE SABOR DO PRADO LTDA;-19.9219882;-43.9595754;27-03-2025;SIM;-1
RUA MARIA MARTINS, 20, LOJA C, JULIANA, Belo Horizonte, Minas Gerais, Brasil;RUA MARIA MARTINS, 20, JULIANA, Belo Horizonte, Minas Gerais, Brasil;LUIZ HENRIQUE PINHEIRO DE SOUZA 03850247627;-19.815594;-43.9435947;03-08-2021;NÃO;-1
AVE DO CONTORNO, 2107, LOJA 02, SANTA TEREZA, Belo Horizonte, Minas Gerais, Brasil;AVE DO CONTORNO, 2107, SANTA TEREZA, Belo Horizonte, Minas Gerais, Brasil;RESTAURANTE DONA DIKA;;;08-08-2021;NÃO;-1
RUA NOGUEIRA DA GAMA, 11, LOJA BAR, JOAO PINHEIRO, Belo Horizonte, Minas Gerais, Brasil;RUA NOGUEIRA DA GAMA, 11, JOAO PINHEIRO, Belo Horizonte, Minas Gerais, Brasil;KINAI'S BAR;-19.9246562;-44.0007587;10-08-2021;SIM;-1
RUA GONCALO DE SOUZA BARROS, 21, nan, JAQUELINE, Belo Horizonte, Minas Gerais, Brasil;RUA GONCALO DE SOUZA BARROS, 21, JAQUELINE, Belo Horizonte, Minas Gerais, Brasil;BAR JOAO GUAXUPE;-19.8008269;-43.9368656;10-08-2021;NÃO;-1
RUA ARTUR DE SA, 380, GALPAO, UNIAO, Belo Horizonte, Minas Gerais, Brasil;RUA ARTUR DE SA, 380, UNIAO, Belo Horizonte, Minas Gerais, Brasil;SABORES NOSSO;-19.8836292;-43.927835;17-08-2021;NÃO;-1
RUA ANTONIO CARLOS GUIMARAES, 35, nan, MINASCAIXA, Belo Horizonte, Minas Gerais, Brasil;RUA ANTONIO CARLOS GUIMARAES, 35, MINASCAIXA, Belo Horizonte, Minas Gerais, Brasil;TEMPEROS E SABORES DA TIA RO;-19.8072972;-43.9607353;20-08-2021;NÃO;-1
AVE OTACILIO NEGRAO DE LIMA, 2870, nan, SAO LUIZ, Belo Horizonte, Minas Gerais, Brasil;AVE OTACILIO NEGRAO DE LIMA, 2870, SAO LUIZ, Belo Horizonte, Minas Gerais, Brasil;ELEVE ROOFTOP LTDA;;;01-09-2021;SIM;-1
AVE BERNARDO DE VASCONCELOS, 1549, nan, SANTA CRUZ, Belo Horizonte, Minas Gerais, Brasil;AVE BERNARDO DE VASCONCELOS, 1549, SANTA CRUZ, Belo Horizonte, Minas Gerais, Brasil;BAMBUZINHO BAR;;;01-09-2021;SIM;-1
RUA MARMORE, 397, nan, SANTA TEREZA, Belo Horizonte, Minas Gerais, Brasil;RUA MARMORE, 397, SANTA TEREZA, Belo Horizonte, Minas Gerais, Brasil;BOLOTAS BAR;-19.9162948;-43.9182816;09-08-2021;SIM;-1
RUA PALMIRA, 1066, nan, SERRA, Belo Horizonte, Minas Gerais, Brasil;RUA PALMIRA, 1066, SERRA, Belo Horizonte, Minas Gerais, Brasil;BOLOTAS SERRA;-19.9389948;-43.9199694;06-10-2023;NÃO;-1
RUA MOACY SILVA, 140, CONJ, JARDIM DOS COMERCIARIOS, Belo Horizonte, Minas Gerais, Brasil;RUA MOACY SILVA, 140, JARDIM DOS COMERCIARIOS, Belo Horizonte, Minas Gerais, Brasil;BAR DO BALDE;;;15-08-2021;NÃO;-1
AVE DO CONTORNO, 4747, nan, SERRA, Belo Horizonte, Minas Gerais, Brasil;AVE DO CONTORNO, 4747, SERRA, Belo Horizonte, Minas Gerais, Brasil;BETIM GRILL RESTAURANTE E CHURRASCARIA;;;25-08-2021;NÃO;-1
RUA PINHAL, 371, CONJ, PIRATININGA, Belo Horizonte, Minas Gerais, Brasil;RUA PINHAL, 371, PIRATININGA, Belo Horizonte, Minas Gerais, Brasil;KING KONG BURGUER;-19.8060061;-43.9857596;25-08-2021;NÃO;-1
RUA ENGENHEIRO OCELO CIRINO, 271, nan, ESTORIL, Belo Horizonte, Minas Gerais, Brasil;RUA ENGENHEIRO OCELO CIRINO, 271, ESTORIL, Belo Horizonte, Minas Gerais, Brasil;ASTRAL BEACH SPORTS;-19.9618992;-43.961877;25-08-2021;SIM;-1
RUA ANTONIO DE ALMEIDA JUNIOR, 396, CONJ, DIAMANTE, Belo Horizonte, Minas Gerais, Brasil;RUA ANTONIO DE ALMEIDA JUNIOR, 396, DIAMANTE, Belo Horizonte, Minas Gerais, Brasil;THU THU DOCES;-19.9980686;-44.0229171;25-08-2021;NÃO;-1
AVE OTACILIO NEGRAO DE LIMA, 4288, nan, BANDEIRANTES, Belo Horizonte, Minas Gerais, Brasil;AVE OTACILIO NEGRAO DE LIMA, 4288, BANDEIRANTES, Belo Horizonte, Minas Gerais, Brasil;RESTAURANTE CLUBE BH LTDA;;;30-08-2021;SIM;-1
RUA MAJOR LOPES, 376, LETRA:A,, SAO PEDRO, Belo Horizonte, Minas Gerais, Brasil;RUA MAJOR LOPES, 376, SAO PEDRO, Belo Horizonte, Minas Gerais, Brasil;PROJETO SABOR DELIVERY;-19.9474918;-43.9354287;30-08-2021;SIM;-1
RUA BAVIERA, 102, APT 12, CACHOEIRINHA, Belo Horizonte, Minas Gerais, Brasil;RUA BAVIERA, 102, CACHOEIRINHA, Belo Horizonte, Minas Gerais, Brasil;FAVORETTO;-19.8879847;-43.9489156;29-07-2021;NÃO;-1
RUA MANGABEIRA, 486, nan, SANTO ANTONIO, Belo Horizonte, Minas Gerais, Brasil;RUA MANGABEIRA, 486, SANTO ANTONIO, Belo Horizonte, Minas Gerais, Brasil;MARIA SOLANGE DA SILVA ALBERTO;-19.9458676;-43.9465231;05-08-2021;NÃO;-1
AVE OLEGARIO MACIEL, 95, LOJA, CENTRO, Belo Horizonte, Minas Gerais, Brasil;AVE OLEGARIO MACIEL, 95, CENTRO, Belo Horizonte, Minas Gerais, Brasil;LANCHONETE FARIA NUNES - ESPETINHO&CHOPE;;;10-08-2021;SIM;-1
RUA IZABEL BUENO, 1252, nan, SANTA ROSA, Belo Horizonte, Minas Gerais, Brasil;RUA IZABEL BUENO, 1252, SANTA ROSA, Belo Horizonte, Minas Gerais, Brasil;BUTIQUIM DO GAGUIM;-19.8633865;-43.9501186;15-08-2021;NÃO;-1
RUA MORRO DE SAO PAULO, 150, nan, SANTA CRUZ, Belo Horizonte, Minas Gerais, Brasil;RUA MORRO DE SAO PAULO, 150, SANTA CRUZ, Belo Horizonte, Minas Gerais, Brasil;RENAN OLIVEIRA DE JESUS;;;15-08-2021;NÃO;-1
RUA JULIO DE CASTILHO, 1236, nan, CINQUENTENARIO, Belo Horizonte, Minas Gerais, Brasil;RUA JULIO DE CASTILHO, 1236, CINQUENTENARIO, Belo Horizonte, Minas Gerais, Brasil;ROYAL BEBIDAS;-19.9590946;-43.9818958;17-08-2021;SIM;-1
AVE ITAITE, 529, LOJA:07,, SAO GERALDO, Belo Horizonte, Minas Gerais, Brasil;AVE ITAITE, 529, SAO GERALDO, Belo Horizonte, Minas Gerais, Brasil;SUBWAY SAO GERALDO;;;19-08-2021;SIM;-1
RUA SOFRE, 41, LOJA B, GOIANIA, Belo Horizonte, Minas Gerais, Brasil;RUA SOFRE, 41, GOIANIA, Belo Horizonte, Minas Gerais, Brasil;JOSE FELIPE 90078004691;-19.8721168;-43.8977729;21-08-2021;NÃO;-1
RUA HUMBERTO DE CAMPOS, 644, nan, COPACABANA, Belo Horizonte, Minas Gerais, Brasil;RUA HUMBERTO DE CAMPOS, 644, COPACABANA, Belo Horizonte, Minas Gerais, Brasil;MARISTELA OLIVEIRA ANDRADE 52707458600;-19.8301044;-43.987464;02-10-2012;NÃO;-1
AVE SINFRONIO BROCHADO, 1170, nan, BARREIRO, Belo Horizonte, Minas Gerais, Brasil;AVE SINFRONIO BROCHADO, 1170, BARREIRO, Belo Horizonte, Minas Gerais, Brasil;17.145.143 ALDA APARECIDA MARTINS DOS REIS HESSE;;;09-11-2012;NÃO;-1
RUA DOUTOR JOAO MIRANDA, 164, nan, DONA CLARA, Belo Horizonte, Minas Gerais, Brasil;RUA DOUTOR JOAO MIRANDA, 164, DONA CLARA, Belo Horizonte, Minas Gerais, Brasil;SABOR DO RANGO;-19.8612876;-43.9362088;09-11-2012;NÃO;-1
RUA CASTELO SANTAREM, 430, nan, CASTELO, Belo Horizonte, Minas Gerais, Brasil;RUA CASTELO SANTAREM, 430, CASTELO, Belo Horizonte, Minas Gerais, Brasil;PURA ALEGRIA CLUB BAR;-19.8791619;-44.0014852;11-10-2012;NÃO;-1
RUA JOSE ISIDORO MIRANDA, 132, LOJA, MARIA GORETTI, Belo Horizonte, Minas Gerais, Brasil;RUA JOSE ISIDORO MIRANDA, 132, MARIA GORETTI, Belo Horizonte, Minas Gerais, Brasil;PEPCO;-19.8626863;-43.909065;05-11-2012;NÃO;-1
RUA TORDO, 103, CASA, GOIANIA, Belo Horizonte, Minas Gerais, Brasil;RUA TORDO, 103, GOIANIA, Belo Horizonte, Minas Gerais, Brasil;VANDA MARIA DA SILVA CPF 72105488668;-19.8704209;-43.8999856;15-10-2012;NÃO;-1
RUA CAMPOS SALES, 539, LOJA 531, NOVA SUISSA, Belo Horizonte, Minas Gerais, Brasil;RUA CAMPOS SALES, 539, NOVA SUISSA, Belo Horizonte, Minas Gerais, Brasil;BENDITO CHOPP II;-19.9284592;-43.9808395;03-10-2012;SIM;-1
AVE SANTA TEREZINHA, 1840, LOJA B, SANTA TEREZINHA, Belo Horizonte, Minas Gerais, Brasil;AVE SANTA TEREZINHA, 1840, SANTA TEREZINHA, Belo Horizonte, Minas Gerais, Brasil;ESPETINHO DO ALEXANDRE;;;23-10-2012;NÃO;-1
RUA CONEGO TRINDADE, 757, LOJA, JARDIM LEBLON, Belo Horizonte, Minas Gerais, Brasil;RUA CONEGO TRINDADE, 757, JARDIM LEBLON, Belo Horizonte, Minas Gerais, Brasil;17.052.517 FERNANDA MEIRELLES DE JESUS;-19.821705;-43.9909804;23-10-2012;SIM;-1
RUA TUBARAO, 9, CASA, CARDOSO, Belo Horizonte, Minas Gerais, Brasil;RUA TUBARAO, 9, CARDOSO, Belo Horizonte, Minas Gerais, Brasil;MARIA DE FATIMA DE SOUSA 37494732691;-20.0032514;-44.004137;07-11-2012;NÃO;-1
RUA AGUAS VERMELHAS, 88, CASA B, MINASLANDIA, Belo Horizonte, Minas Gerais, Brasil;RUA AGUAS VERMELHAS, 88, MINASLANDIA, Belo Horizonte, Minas Gerais, Brasil;CANTINA DA NINA;-19.8533026;-43.9280936;17-05-2021;NÃO;-1
RUA PIAUI, 1880, LOJA, SAVASSI, Belo Horizonte, Minas Gerais, Brasil;RUA PIAUI, 1880, SAVASSI, Belo Horizonte, Minas Gerais, Brasil;BAIUCA DELIVERY;-19.9383029;-43.9287133;18-05-2021;SIM;-1
RUA MAESTRO LOBO DE MESQUITA, 132, nan, TUPI B, Belo Horizonte, Minas Gerais, Brasil;RUA MAESTRO LOBO DE MESQUITA, 132, TUPI B, Belo Horizonte, Minas Gerais, Brasil;ZE DOG;-19.8421882;-43.9151022;18-05-2021;NÃO;-1
RUA SAO TEOFILO, 202, CASA,CASA CASA,CASA CASA, PAULO VI, Belo Horizonte, Minas Gerais, Brasil;RUA SAO TEOFILO, 202, PAULO VI, Belo Horizonte, Minas Gerais, Brasil;AIOLIBURGER;-19.8356142;-43.8865091;20-05-2021;NÃO;-1
RUA JOAQUIM ARISTOTELES DE OLIVEIRA, 12, LOJA,LOJA, LETICIA, Belo Horizonte, Minas Gerais, Brasil;RUA JOAQUIM ARISTOTELES DE OLIVEIRA, 12, LETICIA, Belo Horizonte, Minas Gerais, Brasil;VILA MINEIRA;-19.8092671;-43.9778574;20-05-2021;NÃO;-1
RUA MANOEL PEDRO MIRANDA, 105, CASA CASA 01, MARIA GORETTI, Belo Horizonte, Minas Gerais, Brasil;RUA MANOEL PEDRO MIRANDA, 105, MARIA GORETTI, Belo Horizonte, Minas Gerais, Brasil;VICTAL DELIVERY;;;24-05-2021;NÃO;-1
AVE SINFRONIO BROCHADO, 206, nan, BARREIRO, Belo Horizonte, Minas Gerais, Brasil;AVE SINFRONIO BROCHADO, 206, BARREIRO, Belo Horizonte, Minas Gerais, Brasil;TOP SALGADOS;;;31-05-2021;NÃO;-1
RUA MARIA AMELIA PIMENTA, 100, nan, TEIXEIRA DIAS, Belo Horizonte, Minas Gerais, Brasil;RUA MARIA AMELIA PIMENTA, 100, TEIXEIRA DIAS, Belo Horizonte, Minas Gerais, Brasil;RESTAURANTE DU MATTO;-19.9870059;-44.0206699;10-06-2021;NÃO;-1
AVE PORTUGAL, 4325, LOJA 2, ITAPOA, Belo Horizonte, Minas Gerais, Brasil;AVE PORTUGAL, 4325, ITAPOA, Belo Horizonte, Minas Gerais, Brasil;LARI RESTAURANTE E LANCHONETE;;;10-06-2021;SIM;-1
RUA SAO GONCALO, 1345, LOJA, NOVA FLORESTA, Belo Horizonte, Minas Gerais, Brasil;RUA SAO GONCALO, 1345, NOVA FLORESTA, Belo Horizonte, Minas Gerais, Brasil;MARILZA JOIAS;-19.8944647;-43.9321081;14-06-2021;NÃO;-1
RUA DARIO GONCALVES, 354, nan, FLORAMAR, Belo Horizonte, Minas Gerais, Brasil;RUA DARIO GONCALVES, 354, FLORAMAR, Belo Horizonte, Minas Gerais, Brasil;MESTRE DO SABOR FLORAMAR;-19.8400578;-43.9305645;15-06-2021;NÃO;-1
RUA SERGIPE, 212, nan, BOA VIAGEM, Belo Horizonte, Minas Gerais, Brasil;RUA SERGIPE, 212, BOA VIAGEM, Belo Horizonte, Minas Gerais, Brasil;ABENCOADO SABOR;-19.9313643;-43.9365479;18-06-2021;SIM;-1
RUA SAO PAULO, 2632, LOJA:4,, LOURDES, Belo Horizonte, Minas Gerais, Brasil;RUA SAO PAULO, 2632, LOURDES, Belo Horizonte, Minas Gerais, Brasil;BAR DE LOURDES;-19.9340983;-43.9441535;18-06-2021;NÃO;-1
RUA DOS GUAICURUS, 602, LOJA:B,, CENTRO, Belo Horizonte, Minas Gerais, Brasil;RUA DOS GUAICURUS, 602, CENTRO, Belo Horizonte, Minas Gerais, Brasil;602 BAR;-19.9159742;-43.9341822;22-06-2021;SIM;-1
RUA CIRILO GASPAR DE ARAUJO, 36, LOJA, APARECIDA SETIMA SECAO, Belo Horizonte, Minas Gerais, Brasil;RUA CIRILO GASPAR DE ARAUJO, 36, APARECIDA SETIMA SECAO, Belo Horizonte, Minas Gerais, Brasil;BAR DA BRUTA;-19.8936437;-43.960116;17-05-2021;NÃO;-1
RUA GRAO MOGOL, 99, SALA:4 COZINHA,, CARMO, Belo Horizonte, Minas Gerais, Brasil;RUA GRAO MOGOL, 99, CARMO, Belo Horizonte, Minas Gerais, Brasil;MAYU;-19.9398984;-43.9318961;17-05-2021;SIM;-1
AVE RAJA GABAGLIA, 1015, LOJA:A,, LUXEMBURGO, Belo Horizonte, Minas Gerais, Brasil;AVE RAJA GABAGLIA, 1015, LUXEMBURGO, Belo Horizonte, Minas Gerais, Brasil;RESTAURANTE D'LOURDES;;;19-05-2021;NÃO;-1
RUA VEREADOR ANTONIO MENEZES, 81, nan, VILA INDEPENDENCIA I, Belo Horizonte, Minas Gerais, Brasil;RUA VEREADOR ANTONIO MENEZES, 81, VILA INDEPENDENCIA I, Belo Horizonte, Minas Gerais, Brasil;ESPETINHO E HOT DOG DOS AMIGOS;;;24-05-2021;NÃO;-1
RUA CONTAGEM, 1889, nan, SANTA INES, Belo Horizonte, Minas Gerais, Brasil;RUA CONTAGEM, 1889, SANTA INES, Belo Horizonte, Minas Gerais, Brasil;SALSA;-19.8868278;-43.9058435;26-05-2021;NÃO;-1
RUA NAIR PENTAGNA GUIMARAES, 25, nan, SAO BERNARDO, Belo Horizonte, Minas Gerais, Brasil;RUA NAIR PENTAGNA GUIMARAES, 25, SAO BERNARDO, Belo Horizonte, Minas Gerais, Brasil;BROTHER'S HAMBURGUERIA ARTESANAL;-19.842929;-43.9398802;27-05-2021;SIM;-1
RUA SAO CARLOS, 53, LOJA 1, MADRE GERTRUDES, Belo Horizonte, Minas Gerais, Brasil;RUA SAO CARLOS, 53, MADRE GERTRUDES, Belo Horizonte, Minas Gerais, Brasil;EDNA MOURA MARTINS 84225777634;-19.9470688;-44.0040247;07-06-2021;SIM;-1
AVE BARAO HOMEM DE MELO, 4414, LOJA:2,, ESTORIL, Belo Horizonte, Minas Gerais, Brasil;AVE BARAO HOMEM DE MELO, 4414, ESTORIL, Belo Horizonte, Minas Gerais, Brasil;COMERCIAL LORY E LINDINHA LTDA;;;19-05-2021;SIM;-1
RUA MARMORE, 30, nan, SANTA TEREZA, Belo Horizonte, Minas Gerais, Brasil;RUA MARMORE, 30, SANTA TEREZA, Belo Horizonte, Minas Gerais, Brasil;ALEXANDRE SANTOS DA SILVA;-19.9162948;-43.9182816;20-05-2021;SIM;-1
RUA MARIA DA MATTA CASTRO, 754, nan, CONFISCO, Belo Horizonte, Minas Gerais, Brasil;RUA MARIA DA MATTA CASTRO, 754, CONFISCO, Belo Horizonte, Minas Gerais, Brasil;BAR DA ROSANA;;;27-05-2021;NÃO;-1
RUA MACHADO, 36, nan, COLEGIO BATISTA, Belo Horizonte, Minas Gerais, Brasil;RUA MACHADO, 36, COLEGIO BATISTA, Belo Horizonte, Minas Gerais, Brasil;FRANGOU FRITS;-19.9073082;-43.9336173;02-06-2021;NÃO;-1
AVE DO CONTORNO, 10684, LOJA B, BARRO PRETO, Belo Horizonte, Minas Gerais, Brasil;AVE DO CONTORNO, 10684, BARRO PRETO, Belo Horizonte, Minas Gerais, Brasil;AREA 51 BH BAR E RESTAURANTE;;;02-06-2021;NÃO;-1
RUA CARLOS SCHETTINO, 429, nan, NOVA GAMELEIRA, Belo Horizonte, Minas Gerais, Brasil;RUA CARLOS SCHETTINO, 429, NOVA GAMELEIRA, Belo Horizonte, Minas Gerais, Brasil;PARADA DU FRANGO ASSADO E MARMITARIA;-19.9427628;-43.9951982;09-06-2021;NÃO;-1
RUA CIRANDINHA, 70, CONJ, FLORAMAR, Belo Horizonte, Minas Gerais, Brasil;RUA CIRANDINHA, 70, FLORAMAR, Belo Horizonte, Minas Gerais, Brasil;RAFA'S GOURMET;-19.831385;-43.938896;21-06-2021;NÃO;-1
RUA QUINANTE, 266, nan, PARQUE SAO PEDRO, Belo Horizonte, Minas Gerais, Brasil;RUA QUINANTE, 266, PARQUE SAO PEDRO, Belo Horizonte, Minas Gerais, Brasil;LUZITANA LANCHES;-19.8122798;-43.9521307;21-06-2021;NÃO;-1
AVE FLEMING, 510, LOJA 03, OURO PRETO, Belo Horizonte, Minas Gerais, Brasil;AVE FLEMING, 510, OURO PRETO, Belo Horizonte, Minas Gerais, Brasil;GPBONDAN CAFETERIAS LTDA;;;19-05-2021;SIM;-1
RUA ALEIXO LOURENCO DE GOUVEIA, 545, CASA, CARDOSO, Belo Horizonte, Minas Gerais, Brasil;RUA ALEIXO LOURENCO DE GOUVEIA, 545, CARDOSO, Belo Horizonte, Minas Gerais, Brasil;SABORES DA ANNY;;;24-05-2021;NÃO;-1
RUA SEBASTIAO CARDOSO ANTOLIN, 360, LOJA LOJA A, JARDIM GUANABARA, Belo Horizonte, Minas Gerais, Brasil;RUA SEBASTIAO CARDOSO ANTOLIN, 360, JARDIM GUANABARA, Belo Horizonte, Minas Gerais, Brasil;EDIMA BAR;-19.824359;-43.9383416;26-05-2021;NÃO;-1
RUA JULIO CESAR VIEIRA, 125, LOJA LOJA, ATILA DE PAIVA, Belo Horizonte, Minas Gerais, Brasil;RUA JULIO CESAR VIEIRA, 125, ATILA DE PAIVA, Belo Horizonte, Minas Gerais, Brasil;DEBORA HELENA PINTO CANDIDO 08638821611;-19.9773013;-44.0301051;31-05-2021;NÃO;-1
AVE DOM JOSE GASPAR, 805, LOJA:,, CORACAO EUCARISTICO, Belo Horizonte, Minas Gerais, Brasil;AVE DOM JOSE GASPAR, 805, CORACAO EUCARISTICO, Belo Horizonte, Minas Gerais, Brasil;COREU FOOD DRINK;;;10-06-2021;SIM;-1
RUA AUGUSTO DOS ANJOS, 504, LOJA 3, RIO BRANCO, Belo Horizonte, Minas Gerais, Brasil;RUA AUGUSTO DOS ANJOS, 504, RIO BRANCO, Belo Horizonte, Minas Gerais, Brasil;RESENHA FEIJU;-19.8192239;-43.9801314;14-06-2021;NÃO;-1
RUA DAS PERPETUAS, 1001, nan, LINDEIA, Belo Horizonte, Minas Gerais, Brasil;RUA DAS PERPETUAS, 1001, LINDEIA, Belo Horizonte, Minas Gerais, Brasil;LUD BURGER;-19.9786436;-44.0485452;17-06-2021;NÃO;-1
RUA REPUBLICA TCHECA, 142, LOJA 01, LETICIA, Belo Horizonte, Minas Gerais, Brasil;RUA REPUBLICA TCHECA, 142, LETICIA, Belo Horizonte, Minas Gerais, Brasil;DISTRIBUIDORA DE BEBIDAS DOS GEMIOS;-19.8031521;-43.9758528;21-06-2021;NÃO;-1
RUA CONTAGEM, 1225, LOJA:A,, SANTA INES, Belo Horizonte, Minas Gerais, Brasil;RUA CONTAGEM, 1225, SANTA INES, Belo Horizonte, Minas Gerais, Brasil;RICARDO LUIZ PEREIRA DE OLIVEIRA;-19.8868278;-43.9058435;22-06-2021;SIM;-1
RUA ANTONIO DE ALBUQUERQUE, 485, LOJA:8,, SAVASSI, Belo Horizonte, Minas Gerais, Brasil;RUA ANTONIO DE ALBUQUERQUE, 485, SAVASSI, Belo Horizonte, Minas Gerais, Brasil;THE WAFFLE KING;-19.9386192;-43.9336176;21-05-2021;SIM;-1
RUA AZEREDO FILHO, 58, nan, LEONINA, Belo Horizonte, Minas Gerais, Brasil;RUA AZEREDO FILHO, 58, LEONINA, Belo Horizonte, Minas Gerais, Brasil;BAR DO CAU;;;21-05-2021;SIM;-1
RUA GRAO PARA, 32, nan, SANTA EFIGENIA, Belo Horizonte, Minas Gerais, Brasil;RUA GRAO PARA, 32, SANTA EFIGENIA, Belo Horizonte, Minas Gerais, Brasil;SOARES RESTAURANTE & HAPPY HOUR;-19.9285193;-43.9232747;21-05-2021;SIM;-1
RUA PURUS, 380, CONJ 799800, CONCORDIA, Belo Horizonte, Minas Gerais, Brasil;RUA PURUS, 380, CONCORDIA, Belo Horizonte, Minas Gerais, Brasil;HOTDOGZANETTI;-19.8981758;-43.9426108;24-05-2021;NÃO;-1
RUA FLOR DE TIPOANA, 88, nan, OURO PRETO, Belo Horizonte, Minas Gerais, Brasil;RUA FLOR DE TIPOANA, 88, OURO PRETO, Belo Horizonte, Minas Gerais, Brasil;COELHO BAR;-19.8709618;-43.9896155;24-05-2021;NÃO;-1
RUA JOSE PEDRO DE BRITO, 225, nan, SANTA RITA, Belo Horizonte, Minas Gerais, Brasil;RUA JOSE PEDRO DE BRITO, 225, SANTA RITA, Belo Horizonte, Minas Gerais, Brasil;TREM DO LANCHE;;;02-06-2021;NÃO;-1
AVE OTACILIO NEGRAO DE LIMA, 4220, nan, BANDEIRANTES, Belo Horizonte, Minas Gerais, Brasil;AVE OTACILIO NEGRAO DE LIMA, 4220, BANDEIRANTES, Belo Horizonte, Minas Gerais, Brasil;HEROIS BUFFET E RESTAURANTE PAMPULHA LTDA;;;03-06-2021;NÃO;-1
RUA CAPITAO EDUARDO, 35, nan, MONTE AZUL, Belo Horizonte, Minas Gerais, Brasil;RUA CAPITAO EDUARDO, 35, MONTE AZUL, Belo Horizonte, Minas Gerais, Brasil;MOINHO DA PEDRA;-19.8163049;-43.8945828;09-06-2021;SIM;-1
RUA ANTONIO TEIXEIRA DIAS, 2056, nan, TEIXEIRA DIAS, Belo Horizonte, Minas Gerais, Brasil;RUA ANTONIO TEIXEIRA DIAS, 2056, TEIXEIRA DIAS, Belo Horizonte, Minas Gerais, Brasil;BAR E RESTAURANTE DA NINA;-19.9895769;-44.0140963;11-06-2021;NÃO;-1
RUA DAS CANARIAS, 254, nan, SANTA BRANCA, Belo Horizonte, Minas Gerais, Brasil;RUA DAS CANARIAS, 254, SANTA BRANCA, Belo Horizonte, Minas Gerais, Brasil;RENATA JULIANA JESUS GARCIA DE CARVALHO;-19.8405189;-43.9703448;11-06-2021;SIM;-1
RUA MARIA MADALENA ESTEVES, 17, CONJ, MINASLANDIA, Belo Horizonte, Minas Gerais, Brasil;RUA MARIA MADALENA ESTEVES, 17, MINASLANDIA, Belo Horizonte, Minas Gerais, Brasil;MARQUES FOOD;-19.8523971;-43.9322089;14-06-2021;NÃO;-1
RUA DO PATRIARCA, 1045, CONJ DA ESQUINA, IPIRANGA, Belo Horizonte, Minas Gerais, Brasil;RUA DO PATRIARCA, 1045, IPIRANGA, Belo Horizonte, Minas Gerais, Brasil;RAM'MIS DELIVERY;;;22-06-2021;NÃO;-1
RUA MARGARIDA ASSIS FONSECA, 7, nan, CALIFORNIA, Belo Horizonte, Minas Gerais, Brasil;RUA MARGARIDA ASSIS FONSECA, 7, CALIFORNIA, Belo Horizonte, Minas Gerais, Brasil;CANTINA E DISTRIBUIDORA DE BEBIDAS LUCAS VIEIRA LTDA;-19.9269243;-44.0077246;22-06-2021;SIM;-1
AVE SERRANA, 647, LOJA, SERRANO, Belo Horizonte, Minas Gerais, Brasil;AVE SERRANA, 647, SERRANO, Belo Horizonte, Minas Gerais, Brasil;DEGUST ESPETERIA;;;17-05-2021;NÃO;-1
RUA VILA RICA, 768, APT 101, PADRE EUSTAQUIO, Belo Horizonte, Minas Gerais, Brasil;RUA VILA RICA, 768, PADRE EUSTAQUIO, Belo Horizonte, Minas Gerais, Brasil;DENISE MARCIA DE SOUZA 48057614668;-19.9202983;-43.9820026;17-05-2021;NÃO;-1
RUA MONTES CLAROS, 526, nan, CARMO, Belo Horizonte, Minas Gerais, Brasil;RUA MONTES CLAROS, 526, CARMO, Belo Horizonte, Minas Gerais, Brasil;MEU BHAR SION;-19.9443353;-43.9317074;26-05-2021;SIM;-1
RUA OSASCO, 80, CONJ, PIRATININGA, Belo Horizonte, Minas Gerais, Brasil;RUA OSASCO, 80, PIRATININGA, Belo Horizonte, Minas Gerais, Brasil;DELICIAS DA SOSSO;-19.8059264;-43.9849667;26-05-2021;NÃO;-1
RUA MAJOR LAJE, 120, LOJA, OURO PRETO, Belo Horizonte, Minas Gerais, Brasil;RUA MAJOR LAJE, 120, OURO PRETO, Belo Horizonte, Minas Gerais, Brasil;CORINO DE ARAUJO NETO 19609965687;;;28-05-2021;SIM;-1
RUA CUIABA, 302, CONJ 439440, PRADO, Belo Horizonte, Minas Gerais, Brasil;RUA CUIABA, 302, PRADO, Belo Horizonte, Minas Gerais, Brasil;LATORTERIA;-19.9284944;-43.9594694;28-05-2021;NÃO;-1
RUA DIMAS LOURENCO LUCINDO, 41, CONJ, JARDIM FELICIDADE, Belo Horizonte, Minas Gerais, Brasil;RUA DIMAS LOURENCO LUCINDO, 41, JARDIM FELICIDADE, Belo Horizonte, Minas Gerais, Brasil;PEDEAE;-19.8298231;-43.9237198;03-06-2021;NÃO;-1
RUA CASTELO DE LISBOA, 561, nan, CASTELO, Belo Horizonte, Minas Gerais, Brasil;RUA CASTELO DE LISBOA, 561, CASTELO, Belo Horizonte, Minas Gerais, Brasil;JUVENINHA RESTAURANTE;-19.8785116;-44.0012656;09-06-2021;NÃO;-1
RUA IRIBA, 414, nan, SANTA CRUZ, Belo Horizonte, Minas Gerais, Brasil;RUA IRIBA, 414, SANTA CRUZ, Belo Horizonte, Minas Gerais, Brasil;JR SERVICOS;-19.8855352;-43.9449331;09-06-2021;NÃO;-1
RUA CECILIA MAGALHAES GOMES, 555, CONJ, CONFISCO, Belo Horizonte, Minas Gerais, Brasil;RUA CECILIA MAGALHAES GOMES, 555, CONFISCO, Belo Horizonte, Minas Gerais, Brasil;INGRED CAMILLO;;;11-06-2021;NÃO;-1
AVE DOM PEDRO I, 3012, nan, PLANALTO, Belo Horizonte, Minas Gerais, Brasil;AVE DOM PEDRO I, 3012, PLANALTO, Belo Horizonte, Minas Gerais, Brasil;VILSON CHAVES DA CRUZ 87231743668;;;16-06-2021;NÃO;-1
RUA CONTAGEM, 717, LOJA, SANTA INES, Belo Horizonte, Minas Gerais, Brasil;RUA CONTAGEM, 717, SANTA INES, Belo Horizonte, Minas Gerais, Brasil;PATAKAS BEER;-19.8868278;-43.9058435;17-06-2021;SIM;-1
RUA HELIO PELLEGRINO, 27, LOJA, SAO JOAO BATISTA, Belo Horizonte, Minas Gerais, Brasil;RUA HELIO PELLEGRINO, 27, SAO JOAO BATISTA, Belo Horizonte, Minas Gerais, Brasil;BAR DO DICO;-19.8206291;-43.9594675;17-06-2021;NÃO;-1
AVE HENFIL, 560, nan, SANTA TEREZINHA, Belo Horizonte, Minas Gerais, Brasil;AVE HENFIL, 560, SANTA TEREZINHA, Belo Horizonte, Minas Gerais, Brasil;DELTON FESTAS;;;17-06-2021;SIM;-1
RUA ADERBAL RODRIGUES VAZ, 116, CONJ, LINDEIA, Belo Horizonte, Minas Gerais, Brasil;RUA ADERBAL RODRIGUES VAZ, 116, LINDEIA, Belo Horizonte, Minas Gerais, Brasil;PIPEIROS LANCHES;-19.9746563;-44.0458595;17-05-2021;NÃO;-1
RUA JOAO LIRIO DOS SANTOS, 434, nan, SAO JOAO BATISTA, Belo Horizonte, Minas Gerais, Brasil;RUA JOAO LIRIO DOS SANTOS, 434, SAO JOAO BATISTA, Belo Horizonte, Minas Gerais, Brasil;ACAI;-19.8159608;-43.9632139;24-05-2021;SIM;-1
RUA RENASCER, 5, nan, CONJUNTO PAULO VI, Belo Horizonte, Minas Gerais, Brasil;RUA RENASCER, 5, CONJUNTO PAULO VI, Belo Horizonte, Minas Gerais, Brasil;LJ MARMITEX;-19.8317262;-43.8839208;28-05-2021;NÃO;-1
RUA TEBAS, 954, CONJ, ALTO VERA CRUZ, Belo Horizonte, Minas Gerais, Brasil;RUA TEBAS, 954, ALTO VERA CRUZ, Belo Horizonte, Minas Gerais, Brasil;CANTINA DA FABI;-19.907727;-43.8888788;28-05-2021;NÃO;-1
RUA SILVIO GIUSEPE ROSSO, 35, nan, NOVO SANTA CECILIA, Belo Horizonte, Minas Gerais, Brasil;RUA SILVIO GIUSEPE ROSSO, 35, NOVO SANTA CECILIA, Belo Horizonte, Minas Gerais, Brasil;SOUZA'S GOURMET;;;01-06-2021;NÃO;-1
RUA CABO JORGE SOUZA, 113, nan, JARDIM VITORIA, Belo Horizonte, Minas Gerais, Brasil;RUA CABO JORGE SOUZA, 113, JARDIM VITORIA, Belo Horizonte, Minas Gerais, Brasil;SOTTILE PIZZERIA;-19.8576008;-43.8713282;16-06-2021;SIM;-1
RUA TATUAPE, 102, nan, MARIA HELENA, Belo Horizonte, Minas Gerais, Brasil;RUA TATUAPE, 102, MARIA HELENA, Belo Horizonte, Minas Gerais, Brasil;RESTAURANTE ENGENZINHO;-19.801688;-43.9994846;17-06-2021;NÃO;-1
RUA BERNARDO GUIMARAES, 3126, nan, BARRO PRETO, Belo Horizonte, Minas Gerais, Brasil;RUA BERNARDO GUIMARAES, 3126, BARRO PRETO, Belo Horizonte, Minas Gerais, Brasil;CANTINA DA LU RESTAURANTE LTDA;-19.924968;-43.9574411;21-05-2021;SIM;-1
RUA MINISTRO OLIVEIRA SALAZAR, 1401, nan, SANTA MONICA, Belo Horizonte, Minas Gerais, Brasil;RUA MINISTRO OLIVEIRA SALAZAR, 1401, SANTA MONICA, Belo Horizonte, Minas Gerais, Brasil;BOUTIQUIN DO DE&DE;-19.8237426;-43.9713245;21-05-2021;SIM;-1
RUA CAMPO FORMOSO, 346, LOJA, SALGADO FILHO, Belo Horizonte, Minas Gerais, Brasil;RUA CAMPO FORMOSO, 346, SALGADO FILHO, Belo Horizonte, Minas Gerais, Brasil;BAR DO ZUM;-19.9469299;-43.9857617;25-05-2021;NÃO;-1
AVE PERIMETRAL, 1177, CONJ IMPAR, VILA PINHO, Belo Horizonte, Minas Gerais, Brasil;AVE PERIMETRAL, 1177, VILA PINHO, Belo Horizonte, Minas Gerais, Brasil;LANCHES BURGUER;;;26-05-2021;NÃO;-1
RUA JOAQUIM ASSIS RIBEIRO, 15, nan, CALIFORNIA, Belo Horizonte, Minas Gerais, Brasil;RUA JOAQUIM ASSIS RIBEIRO, 15, CALIFORNIA, Belo Horizonte, Minas Gerais, Brasil;PAULO HENRIQUE PEREIRA DA COSTA 11356238645;-19.9211912;-44.011445;07-06-2021;SIM;-1
RUA RIBEIRAO VERMELHO, 77, nan, PIRATININGA, Belo Horizonte, Minas Gerais, Brasil;RUA RIBEIRAO VERMELHO, 77, PIRATININGA, Belo Horizonte, Minas Gerais, Brasil;DELICIAS DA TATA;-19.8174076;-43.9905027;07-06-2021;NÃO;-1
RUA SETE DE SETEMBRO, 355, nan, CABANA DO PAI TOMAS, Belo Horizonte, Minas Gerais, Brasil;RUA SETE DE SETEMBRO, 355, CABANA DO PAI TOMAS, Belo Horizonte, Minas Gerais, Brasil;FRANGO DO PAIZAO;-19.9452837;-44.0016367;09-06-2021;NÃO;-1
RUA CUCO, 22, nan, SAO BENEDITO, Belo Horizonte, Minas Gerais, Brasil;RUA CUCO, 22, SAO BENEDITO, Belo Horizonte, Minas Gerais, Brasil;ELAINE LOPES;-19.8696254;-43.8978865;14-06-2021;NÃO;-1
RUA MINISTRO OLIVEIRA SALAZAR, 260, CONJ, SANTA MONICA, Belo Horizonte, Minas Gerais, Brasil;RUA MINISTRO OLIVEIRA SALAZAR, 260, SANTA MONICA, Belo Horizonte, Minas Gerais, Brasil;MARRETA BURGUER;-19.8237426;-43.9713245;14-06-2021;NÃO;-1
RUA IZABEL BUENO, 1100, nan, SANTA ROSA, Belo Horizonte, Minas Gerais, Brasil;RUA IZABEL BUENO, 1100, SANTA ROSA, Belo Horizonte, Minas Gerais, Brasil;RANCHO DO MANOEL;-19.8633865;-43.9501186;15-06-2021;SIM;-1
RUA ITAUNENSE, 95, nan, CAMARGOS, Belo Horizonte, Minas Gerais, Brasil;RUA ITAUNENSE, 95, CAMARGOS, Belo Horizonte, Minas Gerais, Brasil;CRUZ BURGER;-19.941447;-44.0199595;17-06-2021;NÃO;-1
RUA GURUA, 368, nan, SAO GERALDO, Belo Horizonte, Minas Gerais, Brasil;RUA GURUA, 368, SAO GERALDO, Belo Horizonte, Minas Gerais, Brasil;GILSON AGUIAR BRAGA 00021018669;-19.8965616;-43.8956406;15-10-2012;NÃO;-1
RUA GERALDO LOPES DA SILVA, 215, LOJA, MANTIQUEIRA, Belo Horizonte, Minas Gerais, Brasil;RUA GERALDO LOPES DA SILVA, 215, MANTIQUEIRA, Belo Horizonte, Minas Gerais, Brasil;NIVAR FERREIRA DERCA 37026046691;-19.7840079;-43.9796924;15-10-2012;NÃO;-1
RUA VIRGINIA DE MATOS, 76, CASA, ITAIPU, Belo Horizonte, Minas Gerais, Brasil;RUA VIRGINIA DE MATOS, 76, ITAIPU, Belo Horizonte, Minas Gerais, Brasil;EDUARDO AGOSTINHO FERREIRA 05168493602;-19.9910456;-44.0479823;24-10-2012;NÃO;-1
AVE ANTONIO ABRAHAO CARAM, 1001, LOJA 10, SAO LUIZ, Belo Horizonte, Minas Gerais, Brasil;AVE ANTONIO ABRAHAO CARAM, 1001, SAO LUIZ, Belo Horizonte, Minas Gerais, Brasil;GOLACO;;;25-09-2015;NÃO;-1
AVE DO CONTORNO, 9725, nan, PRADO, Belo Horizonte, Minas Gerais, Brasil;AVE DO CONTORNO, 9725, PRADO, Belo Horizonte, Minas Gerais, Brasil;SABOR A MI LTDA;;;26-04-1996;SIM;-1
RUA RIO GRANDE DO NORTE, 1470, nan, SAVASSI, Belo Horizonte, Minas Gerais, Brasil;RUA RIO GRANDE DO NORTE, 1470, SAVASSI, Belo Horizonte, Minas Gerais, Brasil;CRYSTAL NIGHT CLUB;-19.9392342;-43.9329991;01-09-1998;NÃO;-1
RUA TOME DE SOUZA, 1331, nan, SAVASSI, Belo Horizonte, Minas Gerais, Brasil;RUA TOME DE SOUZA, 1331, SAVASSI, Belo Horizonte, Minas Gerais, Brasil;AMICI MIEI;-19.9389459;-43.9270599;17-12-1997;SIM;-1
PCA IRAJA, 20, nan, CONCORDIA, Belo Horizonte, Minas Gerais, Brasil;PCA IRAJA, 20, CONCORDIA, Belo Horizonte, Minas Gerais, Brasil;BOLA & CIA;;;01-06-1996;SIM;-1
RUA PIRITE, 187, LOJA, SANTA TEREZA, Belo Horizonte, Minas Gerais, Brasil;RUA PIRITE, 187, SANTA TEREZA, Belo Horizonte, Minas Gerais, Brasil;BAR TEMATICO DE SANTA TEREZA;-19.9108898;-43.9089846;01-11-1998;SIM;30
RUA SAO PAULO, 957, LJ G 33, CENTRO, Belo Horizonte, Minas Gerais, Brasil;RUA SAO PAULO, 957, CENTRO, Belo Horizonte, Minas Gerais, Brasil;CARNES E SALADAS LTDA;-19.9165456;-43.9392915;01-06-1998;SIM;-1
RUA TEOFILO OTONI, 74, LOJA 1, CARLOS PRATES, Belo Horizonte, Minas Gerais, Brasil;RUA TEOFILO OTONI, 74, CARLOS PRATES, Belo Horizonte, Minas Gerais, Brasil;BAR CANTINHO DO GORDO;-19.9121006;-43.9582332;01-05-1998;SIM;-1
AVE OLEGARIO MACIEL, 1600, LUC BG 78, SANTO AGOSTINHO, Belo Horizonte, Minas Gerais, Brasil;AVE OLEGARIO MACIEL, 1600, SANTO AGOSTINHO, Belo Horizonte, Minas Gerais, Brasil;PEQUIM 2000;;;06-03-1996;SIM;-1
RUA SERGIPE, 129, nan, BOA VIAGEM, Belo Horizonte, Minas Gerais, Brasil;RUA SERGIPE, 129, BOA VIAGEM, Belo Horizonte, Minas Gerais, Brasil;BAR E REST. TONEL DA PINGA;-19.9276828;-43.9353034;16-08-1996;SIM;-1
RUA DOS TIMBIRAS, 2967, nan, BARRO PRETO, Belo Horizonte, Minas Gerais, Brasil;RUA DOS TIMBIRAS, 2967, BARRO PRETO, Belo Horizonte, Minas Gerais, Brasil;TELMA APARECIDA MARTINS RIBEIRO;-19.923849;-43.9514012;01-07-1995;SIM;-1
RUA FREI LEOPOLDO, 8, nan, SAO LUIZ, Belo Horizonte, Minas Gerais, Brasil;RUA FREI LEOPOLDO, 8, SAO LUIZ, Belo Horizonte, Minas Gerais, Brasil;LANCHONETE SABOR DE LIMA LTDA;-19.8700576;-43.9797512;01-11-1997;SIM;-1
RUA ANTONIO DE ALBUQUERQUE, 892, LOJA: 03, SAVASSI, Belo Horizonte, Minas Gerais, Brasil;RUA ANTONIO DE ALBUQUERQUE, 892, SAVASSI, Belo Horizonte, Minas Gerais, Brasil;SOUL DE QUEIJO;-19.9386192;-43.9336176;09-02-2024;SIM;-1
AVE CRISTIANO MACHADO, 1300, SALA 102-B CXPST 38, SAGRADA FAMILIA, Belo Horizonte, Minas Gerais, Brasil;AVE CRISTIANO MACHADO, 1300, SAGRADA FAMILIA, Belo Horizonte, Minas Gerais, Brasil;MOMO CONFEITARIA LTDA;;;01-04-1998;SIM;-1
RUA DOS GUARANIS, 295, nan, CENTRO, Belo Horizonte, Minas Gerais, Brasil;RUA DOS GUARANIS, 295, CENTRO, Belo Horizonte, Minas Gerais, Brasil;BAR CIDADE LTDA;-19.916232;-43.9423878;01-03-1998;SIM;-1
AVE PETROLINA, 910, nan, SAGRADA FAMILIA, Belo Horizonte, Minas Gerais, Brasil;AVE PETROLINA, 910, SAGRADA FAMILIA, Belo Horizonte, Minas Gerais, Brasil;RECANTO VERDE;;;30-11-1996;NÃO;-1
RUA GOIAS, 286, LOJA 2, BOA VIAGEM, Belo Horizonte, Minas Gerais, Brasil;RUA GOIAS, 286, BOA VIAGEM, Belo Horizonte, Minas Gerais, Brasil;COMERCIAL BRUFER FERREIRA LTDA;-19.9259192;-43.9354585;10-12-1998;SIM;-1
RUA PIUM I, 1037, nan, ANCHIETA, Belo Horizonte, Minas Gerais, Brasil;RUA PIUM I, 1037, ANCHIETA, Belo Horizonte, Minas Gerais, Brasil;ALGUIDARES BAR E RESTAURANTE LTDA;-19.9538539;-43.9291343;16-11-1995;SIM;-1
RUA ARACATI, 106, LOJA 02, NOVA SUISSA, Belo Horizonte, Minas Gerais, Brasil;RUA ARACATI, 106, NOVA SUISSA, Belo Horizonte, Minas Gerais, Brasil;RESTAURANTE NHOQUE HOUSE LTDA;-19.9306253;-43.9754612;18-05-1994;SIM;-1
AVE PRUDENTE DE MORAIS, 743, LOJA 01 LOJA 02 LOJA 03, SANTO ANTONIO, Belo Horizonte, Minas Gerais, Brasil;AVE PRUDENTE DE MORAIS, 743, SANTO ANTONIO, Belo Horizonte, Minas Gerais, Brasil;CR BAR E RESTAURANTE LTDA;;;10-05-1999;NÃO;-1
RUA DOS LAGOS, 295, nan, CONJUNTO CELSO MACHADO, Belo Horizonte, Minas Gerais, Brasil;RUA DOS LAGOS, 295, CONJUNTO CELSO MACHADO, Belo Horizonte, Minas Gerais, Brasil;SELF SERVICE MADUREIRA;-19.8893562;-44.0075201;01-03-1999;SIM;-1
RUA ITAPEMA, 265, nan, ANCHIETA, Belo Horizonte, Minas Gerais, Brasil;RUA ITAPEMA, 265, ANCHIETA, Belo Horizonte, Minas Gerais, Brasil;CANAA;-19.9493059;-43.9273932;30-03-1998;NÃO;-1
AVE PROFESSOR MARIO WERNECK, 1441, nan, BURITIS, Belo Horizonte, Minas Gerais, Brasil;AVE PROFESSOR MARIO WERNECK, 1441, BURITIS, Belo Horizonte, Minas Gerais, Brasil;SALPICAO RESTAURANTE LTDA;;;18-06-1997;SIM;-1
RUA GRAO MOGOL, 573, nan, CARMO, Belo Horizonte, Minas Gerais, Brasil;RUA GRAO MOGOL, 573, CARMO, Belo Horizonte, Minas Gerais, Brasil;BAR COPO DE OURO;-19.9398984;-43.9318961;01-04-1995;SIM;-1
RUA RIO DE JANEIRO, 1425, nan, LOURDES, Belo Horizonte, Minas Gerais, Brasil;RUA RIO DE JANEIRO, 1425, LOURDES, Belo Horizonte, Minas Gerais, Brasil;CASANTIGA;-19.9292297;-43.9413702;15-11-1997;NÃO;-1
RUA CARACA, 402, nan, SERRA, Belo Horizonte, Minas Gerais, Brasil;RUA CARACA, 402, SERRA, Belo Horizonte, Minas Gerais, Brasil;FLAGS RESTAURANTE COMERCIO LTDA;-19.9428812;-43.9138144;30-01-2024;SIM;-1
RUA MAJOR LOPES, 469, nan, SAO PEDRO, Belo Horizonte, Minas Gerais, Brasil;RUA MAJOR LOPES, 469, SAO PEDRO, Belo Horizonte, Minas Gerais, Brasil;BUFFET CRISTINA MISK;-19.9474918;-43.9354287;13-08-1998;SIM;-1
RUA ITAMARATI, 977, nan, PADRE EUSTAQUIO, Belo Horizonte, Minas Gerais, Brasil;RUA ITAMARATI, 977, PADRE EUSTAQUIO, Belo Horizonte, Minas Gerais, Brasil;ELIZABETH RIBEIRO COSTA;-19.9159413;-43.9870345;01-11-1997;SIM;-1
RUA DOS TUPIS, 300, LOJA 292, CENTRO, Belo Horizonte, Minas Gerais, Brasil;RUA DOS TUPIS, 300, CENTRO, Belo Horizonte, Minas Gerais, Brasil;M & M LANCHES LTDA;-19.9214244;-43.9398755;20-03-1997;SIM;-1
RUA SALINAS, 1375, nan, SANTA TEREZA, Belo Horizonte, Minas Gerais, Brasil;RUA SALINAS, 1375, SANTA TEREZA, Belo Horizonte, Minas Gerais, Brasil;RESTAURANTE FATIMA BAHIA LTDA;-19.9148029;-43.9230373;14-07-1997;SIM;-1
RUA GRAO PARA, 520, nan, SANTA EFIGENIA, Belo Horizonte, Minas Gerais, Brasil;RUA GRAO PARA, 520, SANTA EFIGENIA, Belo Horizonte, Minas Gerais, Brasil;O PONTO RESTAURANTE;-19.9285193;-43.9232747;24-01-2024;SIM;-1
PCA ALEXANDRE MOTERANI, 44, nan, SANTA TEREZINHA, Belo Horizonte, Minas Gerais, Brasil;PCA ALEXANDRE MOTERANI, 44, SANTA TEREZINHA, Belo Horizonte, Minas Gerais, Brasil;BAR & RESTAURANTE URQUIZA SANTIAGO LTDA;;;10-07-1998;SIM;-1
RUA HERMILO ALVES, 94, LOJA 2, SANTA TEREZA, Belo Horizonte, Minas Gerais, Brasil;RUA HERMILO ALVES, 94, SANTA TEREZA, Belo Horizonte, Minas Gerais, Brasil;O DILICIA;-19.9163621;-43.9244363;01-04-1997;SIM;-1
AVE ASSIS CHATEAUBRIAND, 524, nan, FLORESTA, Belo Horizonte, Minas Gerais, Brasil;AVE ASSIS CHATEAUBRIAND, 524, FLORESTA, Belo Horizonte, Minas Gerais, Brasil;ARRUMACAO EMPREENDIMENTOS LTDA;;;13-08-1997;NÃO;-1
RUA MATO GROSSO, 1100, nan, SANTO AGOSTINHO, Belo Horizonte, Minas Gerais, Brasil;RUA MATO GROSSO, 1100, SANTO AGOSTINHO, Belo Horizonte, Minas Gerais, Brasil;CASA NOVA;-19.9280508;-43.9493253;01-07-1997;NÃO;-1
RUA PARAIBA, 1069, nan, SAVASSI, Belo Horizonte, Minas Gerais, Brasil;RUA PARAIBA, 1069, SAVASSI, Belo Horizonte, Minas Gerais, Brasil;CERTAS TORTAS;-19.9346515;-43.9332846;01-02-1995;NÃO;-1
AVE AFONSO PENA, 2185, nan, FUNCIONARIOS, Belo Horizonte, Minas Gerais, Brasil;AVE AFONSO PENA, 2185, FUNCIONARIOS, Belo Horizonte, Minas Gerais, Brasil;CROUTON LTDA;;;01-06-1998;SIM;-1
AVE GENERAL CARLOS GUEDES, 557, LETRA A, PLANALTO, Belo Horizonte, Minas Gerais, Brasil;AVE GENERAL CARLOS GUEDES, 557, PLANALTO, Belo Horizonte, Minas Gerais, Brasil;GRILL CHAPA MIL;;;12-08-1998;SIM;-1
RUA PIAUI, 1884, LOJA,, SAVASSI, Belo Horizonte, Minas Gerais, Brasil;RUA PIAUI, 1884, SAVASSI, Belo Horizonte, Minas Gerais, Brasil;BAIUCA PICANHA E CIA;-19.9383029;-43.9287133;11-04-1997;SIM;7
AVE PRESIDENTE ANTONIO CARLOS, 7660, nan, SAO LUIZ, Belo Horizonte, Minas Gerais, Brasil;AVE PRESIDENTE ANTONIO CARLOS, 7660, SAO LUIZ, Belo Horizonte, Minas Gerais, Brasil;RUBI SCOTCH BAR;;;21-11-1997;NÃO;-1
PCA HUGO WERNECK, 227, nan, SANTA EFIGENIA, Belo Horizonte, Minas Gerais, Brasil;PCA HUGO WERNECK, 227, SANTA EFIGENIA, Belo Horizonte, Minas Gerais, Brasil;JEITO DE MINAS ALIMENTACAO LTDA;;;01-12-1995;NÃO;-1
RUA DOS TUPIS, 317, LOJA: G 45-46,, CENTRO, Belo Horizonte, Minas Gerais, Brasil;RUA DOS TUPIS, 317, CENTRO, Belo Horizonte, Minas Gerais, Brasil;COMERCIAL ELMANA LTDA;-19.9214244;-43.9398755;01-02-1994;SIM;-1
RUA FURTADO DE MENEZES, 198, nan, SANTA ROSA, Belo Horizonte, Minas Gerais, Brasil;RUA FURTADO DE MENEZES, 198, SANTA ROSA, Belo Horizonte, Minas Gerais, Brasil;RESTAURANTE FANDINHA;-19.8594398;-43.9494517;20-09-1997;NÃO;-1
AVE FRANCISCO SA, 1114, nan, GUTIERREZ, Belo Horizonte, Minas Gerais, Brasil;AVE FRANCISCO SA, 1114, GUTIERREZ, Belo Horizonte, Minas Gerais, Brasil;RUPA' S CERVEJARIA;;;17-08-1995;SIM;-1
AVE ABILIO MACHADO, 1044, LOJA 1048, INCONFIDENCIA, Belo Horizonte, Minas Gerais, Brasil;AVE ABILIO MACHADO, 1044, INCONFIDENCIA, Belo Horizonte, Minas Gerais, Brasil;CANTINA DO ANGELO;;;01-04-1998;NÃO;-1
AVE BARBACENA, 1009, nan, SANTO AGOSTINHO, Belo Horizonte, Minas Gerais, Brasil;AVE BARBACENA, 1009, SANTO AGOSTINHO, Belo Horizonte, Minas Gerais, Brasil;RESTAURANTE SHANG DONG LTDA;;;01-03-1996;NÃO;-1
AVE PRESIDENTE CARLOS LUZ, 3001, LOJA PA14, CAICARAS, Belo Horizonte, Minas Gerais, Brasil;AVE PRESIDENTE CARLOS LUZ, 3001, CAICARAS, Belo Horizonte, Minas Gerais, Brasil;O BARCO;;;23-05-1996;SIM;-1
RUA DOS GUARANIS, 6, nan, CENTRO, Belo Horizonte, Minas Gerais, Brasil;RUA DOS GUARANIS, 6, CENTRO, Belo Horizonte, Minas Gerais, Brasil;BAR E LANCHONETE BRUXELAS;-19.916232;-43.9423878;16-05-1997;SIM;-1
AVE ABILIO MACHADO, 1210, nan, INCONFIDENCIA, Belo Horizonte, Minas Gerais, Brasil;AVE ABILIO MACHADO, 1210, INCONFIDENCIA, Belo Horizonte, Minas Gerais, Brasil;NEIVA FERREIRA FONSECA BICALHO CARDOSO;;;01-10-1995;SIM;-1
